~Version information
VERS. 2.0:
WRAP. NO:
~Well
STRT.m 1499.8790000 :  
STOP.m 2416.3790000 :  
STEP.m 0.00000000 :  
NULL.  -999.250000 :  
COMP.    : COMPANY
WELL.  A10 : WELL
FLD.    : FIELD
LOC.    : LOCATION
SRVC.    : SERVICE COMPANY
DATE.  Monday, January 26 2009 14:04:02 : DATE
PROV.    : PROVINCE
UWI.    : UNIQUE WELL ID
API.    : API NUMBER
~Curve
DEPT.m   : DEPTH
NetGross.    : NetGross
Facies.    : Facies
Porosity.m3/m3   : Porosity
Gamma.gAPI   : Gamma
DEPTH.m   : trend
~Parameter

~Ascii
# ...
2369.129 0.0 0.0 0.1582549959 83.098770142 2369.1289063
2369.629 0.0 0.0 0.1457040012 84.047340393 2369.6289063
2370.129 0.0 0.0 0.1462720037 83.004470825 2370.1289063
2370.629 0.0 0.0 0.151030004 80.491645813 2370.6289063
2371.129 0.0 0.0 0.1437779963 78.624809265 2371.1289063
2371.629 0.0 0.0 0.1326919943 78.079574585 2371.6289063
2372.129 0.0 0.0 0.1331270039 78.805290222 2372.1289063
2372.629 0.0 0.0 0.1372410059 80.785804749 2372.6289063
2373.129 0.0 0.0 0.1383749992 83.485069275 2373.1289063
2373.629 0.0 0.0 0.1385580003 86.731948853 2373.6289063
2374.129 0.0 0.0 0.1404000074 88.944801331 2374.1289063
2374.629 0.0 0.0 0.1427730024 89.618614197 2374.6289063
2375.129 0.0 0.0 0.1459330022 88.646812439 2375.1289063
2375.629 0.0 0.0 0.1493449956 85.995361328 2375.6289063
2376.129 0.0 0.0 0.1491349936 82.137687683 2376.1289063
2376.629 0.0 0.0 0.1477690041 77.224952698 2376.6289063
2377.129 0.0 0.0 0.172555998 73.801345825 2377.1289063
2377.629 0.0 0.0 0.2056950033 72.679191589 2377.6289063
2378.129 0.0 0.0 0.1945720017 73.258575439 2378.1289063
2378.629 0.0 0.0 0.1693170071 75.347953796 2378.6289063
2379.129 0.0 0.0 0.1574389935 78.740722656 2379.1289063
2379.629 0.0 0.0 0.1498329937 83.370910645 2379.6289063
2380.129 0.0 0.0 0.1380070001 83.323890686 2380.1289063
2380.629 0.0 0.0 0.1248330027 76.711174011 2380.6289063
2381.129 0.0 0.0 0.1217949986 72.067352295 2381.1289063
2381.629 0.0 0.0 0.1219919994 72.117424011 2381.6289063
2382.129 0.0 0.0 0.1325159967 77.048202515 2382.1289063
2382.629 0.0 0.0 0.1463360041 86.919334412 2382.6289063
2383.129 0.0 0.0 0.1502279937 92.060554504 2383.1289063
2383.629 0.0 0.0 0.1509490013 89.384277344 2383.6289063
2384.129 0.0 0.0 0.1584530026 84.977279663 2384.1289063
2384.629 0.0 0.0 0.1681240052 80.78301239 2384.6289063
2385.129 0.0 0.0 0.1692180037 77.133903503 2385.1289063
2385.629 0.0 0.0 0.1675750017 74.136077881 2385.6289063
2386.129 0.0 0.0 0.1560190022 73.008277893 2386.1289063
2386.629 0.0 0.0 0.141297996 74.139625549 2386.6289063
2387.129 0.0 0.0 0.1432179958 76.797294617 2387.1289063
2387.629 0.0 0.0 0.1504510045 80.747276306 2387.6289063
2388.129 0.0 0.0 0.1488589942 86.287956238 2388.1289063
2388.629 0.0 0.0 0.1444479972 93.514587402 2388.6289063
2389.129 0.0 0.0 0.1468160003 96.614372253 2389.1289063
2389.629 0.0 0.0 0.1513500065 93.731330872 2389.6289063
2390.129 0.0 0.0 0.1499650031 89.101341248 2390.1289063
2390.629 0.0 0.0 0.1466909945 84.076881409 2390.6289063
2391.129 0.0 0.0 0.1632589996 79.714752197 2391.1289063
2391.629 0.0 0.0 0.1861609966 76.352401733 2391.6289063
2392.129 0.0 0.0 0.1636289954 77.284561157 2392.1289063
2392.629 0.0 0.0 0.1265899986 83.563224792 2392.6289063
2393.129 0.0 0.0 0.1402069926 90.302032471 2393.1289063
2393.629 0.0 0.0 0.1699990034 95.940811157 2393.6289063
2394.129 0.0 0.0 0.1572249979 97.190925598 2394.1289063
2394.629 0.0 0.0 0.1308600008 93.002334595 2394.6289063
2395.129 0.0 0.0 0.1308570057 88.108352661 2395.1289063
2395.629 0.0 0.0 0.1392720044 84.020248413 2395.6289063
2396.129 0.0 0.0 0.1551569998 80.59614563 2396.1289063
2396.629 0.0 0.0 0.1734270006 77.790733337 2396.6289063
2397.129 0.0 0.0 0.1715150028 76.012832642 2397.1289063
2397.629 0.0 0.0 0.1631579995 75.392967224 2397.6289063
2398.129 0.0 0.0 0.1664820015 76.373962402 2398.1289063
2398.629 0.0 0.0 0.173537001 79.097183228 2398.6289063
2399.129 0.0 0.0 0.1620309949 82.340370178 2399.1289063
2399.629 0.0 0.0 0.144600004 85.713249207 2399.6289063
2400.129 0.0 0.0 0.1513240039 87.479957581 2400.1289063
2400.629 0.0 0.0 0.1657599956 87.086265564 2400.6289063
2401.129 0.0 0.0 0.1737470031 84.064033508 2401.1289063
2401.629 0.0 0.0 0.1796739995 78.263801575 2401.6289063
2402.129 0.0 0.0 0.1857530028 71.630142212 2402.1289063
2402.629 0.0 0.0 0.1918790042 64.783966064 2402.6289063
2403.129 0.0 0.0 0.1897650063 62.664028168 2403.1289063
2403.629 0.0 0.0 0.1850190014 66.847236633 2403.6289063
2404.129 0.0 0.0 0.1722140014 70.846458435 2404.1289063
2404.629 0.0 0.0 0.1568340063 72.590423584 2404.6289063
2405.129 0.0 0.0 0.1415469944 73.131538391 2405.1289063
2405.629 0.0 0.0 0.1262899935 72.805801392 2405.6289063
2406.129 0.0 0.0 0.119942002 75.388618469 2406.1289063
2406.629 0.0 0.0 0.116437003 82.085464478 2406.6289063
2407.129 0.0 0.0 0.1206649989 87.826217651 2407.1289063
2407.629 0.0 0.0 0.1273609996 90.992073059 2407.6289063
2408.129 0.0 0.0 0.1255670041 91.957580566 2408.1289063
2408.629 0.0 0.0 0.1210609972 90.842338562 2408.6289063
2409.129 0.0 0.0 0.1384129971 86.513061523 2409.1289063
2409.629 0.0 0.0 0.1627440006 78.607887268 2409.6289063
2410.129 0.0 0.0 0.1631280035 73.022842407 2410.1289063
2410.629 0.0 0.0 0.1558649987 71.640434265 2410.6289063
2411.129 0.0 0.0 0.1610479951 74.057571411 2411.1289063
2411.629 0.0 0.0 0.1702049971 80.145553589 2411.6289063
2412.129 0.0 0.0 0.1636949927 83.209640503 2412.1289063
2412.629 0.0 0.0 0.1521839947 81.112281799 2412.6289063
2413.129 0.0 0.0 0.1583680063 78.394622803 2413.1289063
2413.629 0.0 0.0 0.1702010036 76.506614685 2413.6289063
2414.129 0.0 0.0 0.1756069958 75.491691589 2414.1289063
2414.629 0.0 0.0 0.1789609939 75.363716125 2414.6289063
