~Version information
VERS. 2.0:
WRAP. NO:
~Well
STRT.m 1499.8790000 :  
STOP.m 2416.3790000 :  
STEP.m 0.00000000 :  
NULL.  -999.250000 :  
COMP.    : COMPANY
WELL.  A10 : WELL
FLD.    : FIELD
LOC.    : LOCATION
SRVC.    : SERVICE COMPANY
DATE.  Monday, January 26 2009 14:04:02 : DATE
PROV.    : PROVINCE
UWI.    : UNIQUE WELL ID
API.    : API NUMBER
~Curve
DEPT.m   : DEPTH
NetGross.    : NetGross
Facies.    : Facies
Porosity.m3/m3   : Porosity
Gamma.gAPI   : Gamma
DEPTH.m   : trend
~Parameter

~Ascii
# ...
2154.129 0.0 0.0 0.1478759944 82.70980072 2154.1289063
2154.629 0.0 0.0 0.1203849986 84.849090576 2154.6289063
2155.129 0.0 0.0 0.1335899979 85.846130371 2155.1289063
2155.629 0.0 0.0 0.159788996 85.786224365 2155.6289063
2156.129 0.0 0.0 0.1574109942 86.128616333 2156.1289063
2156.629 0.0 0.0 0.1459099948 87.339248657 2156.6289063
2157.129 0.0 0.0 0.1380620003 87.940742493 2157.1289063
2157.629 0.0 0.0 0.1313800067 87.461395264 2157.6289063
2158.129 0.0 0.0 0.1281940043 85.949279785 2158.1289063
2158.629 0.0 0.0 0.1261229962 83.419723511 2158.6289063
2159.129 0.0 0.0 0.130091995 80.113342285 2159.1289063
2159.629 0.0 0.0 0.1359899938 76.106971741 2159.6289063
2160.129 0.0 0.0 0.1521520019 73.813697815 2160.1289063
2160.629 0.0 0.0 0.1715909988 74.004013062 2160.6289063
2161.129 0.0 0.0 0.1622859985 76.947593689 2161.1289063
2161.629 0.0 0.0 0.1438020021 82.730537415 2161.6289063
2162.129 0.0 0.0 0.1354040056 89.701934814 2162.1289063
2162.629 0.0 0.0 0.1302260011 97.334655762 2162.6289063
2163.129 0.0 0.0 0.1333999932 101.49532318 2163.1289063
2163.629 0.0 0.0 0.139240995 100.86418915 2163.6289063
2164.129 0.0 0.0 0.1503529996 94.003700256 2164.1289063
2164.629 0.0 0.0 0.1631470025 80.454864502 2164.6289063
2165.129 0.0 0.0 0.1647689939 71.403625488 2165.1289063
2165.629 0.0 0.0 0.1628250033 70.421531677 2165.6289063
2166.129 0.0 0.0 0.1585160047 72.489471436 2166.1289063
2166.629 0.0 0.0 0.1534519941 76.004890442 2166.6289063
2167.129 0.0 0.0 0.149612993 80.514335632 2167.1289063
2167.629 0.0 0.0 0.1461649984 85.873001099 2167.6289063
2168.129 0.0 0.0 0.154121995 89.681617737 2168.1289063
2168.629 0.0 0.0 0.1657190025 91.174110413 2168.6289063
2169.129 0.0 0.0 0.156468004 91.35697937 2169.1289063
2169.629 0.0 0.0 0.1405590028 90.551597595 2169.6289063
2170.129 0.0 0.0 0.1473190039 88.601974487 2170.1289063
2170.629 0.0 0.0 0.1613160074 85.458305359 2170.6289063
2171.129 0.0 0.0 0.1529799998 82.829147339 2171.1289063
2171.629 0.0 0.0 0.1375129968 81.260017395 2171.6289063
2172.129 0.0 0.0 0.131663993 79.930305481 2172.1289063
2172.629 0.0 0.0 0.1288850009 78.5779953 2172.6289063
2173.129 0.0 0.0 0.1312160045 76.644096375 2173.1289063
2173.629 0.0 0.0 0.1351779997 73.950111389 2173.6289063
2174.129 0.0 0.0 0.1262200028 71.433586121 2174.1289063
2174.629 0.0 0.0 0.1131369993 69.393852234 2174.6289063
2175.129 0.0 0.0 0.1346800029 68.300086975 2175.1289063
2175.629 0.0 0.0 0.1672780067 68.302101135 2175.6289063
2176.129 0.0 0.0 0.1523649991 70.990394592 2176.1289063
2176.629 0.0 0.0 0.1222829968 76.872810364 2176.6289063
2177.129 0.0 0.0 0.1403550059 81.720016479 2177.1289063
2177.629 0.0 0.0 0.1738020033 84.181640625 2177.6289063
2178.129 0.0 0.0 0.1654330045 85.27142334 2178.1289063
2178.629 0.0 0.0 0.1437129974 85.313049316 2178.6289063
2179.129 0.0 0.0 0.1433289945 84.959129333 2179.1289063
2179.629 0.0 0.0 0.1497589946 84.418052673 2179.6289063
2180.129 0.0 0.0 0.1322479993 84.707679749 2180.1289063
2180.629 0.0 0.0 0.1070939973 86.153015137 2180.6289063
2181.129 0.0 0.0 0.1097199991 87.717155457 2181.1289063
2181.629 0.0 0.0 0.1212159991 89.069015503 2181.6289063
2182.129 0.0 0.0 0.1381810009 86.255310059 2182.1289063
2182.629 0.0 0.0 0.1568920016 78.013793945 2182.6289063
2183.129 0.0 0.0 0.1650020033 72.401733398 2183.1289063
2183.629 0.0 0.0 0.1697269976 71.991737366 2183.6289063
2184.129 0.0 0.0 0.150711 75.035873413 2184.1289063
2184.629 0.0 0.0 0.1241139993 80.976066589 2184.6289063
2185.129 0.0 0.0 0.1279709935 83.733703613 2185.1289063
2185.629 0.0 0.0 0.1415520012 81.367919922 2185.6289063
2186.129 0.0 0.0 0.1501979977 79.19719696 2186.1289063
2186.629 0.0 0.0 0.1572670043 78.919662476 2186.6289063
2187.129 0.0 0.0 0.1626420021 80.200790405 2187.1289063
2187.629 0.0 0.0 0.1674759984 82.933784485 2187.6289063
2188.129 0.0 0.0 0.1465640068 85.150726318 2188.1289063
2188.629 0.0 0.0 0.1174319983 86.22328949 2188.6289063
2189.129 0.0 0.0 0.1225399971 85.586326599 2189.1289063
2189.629 0.0 0.0 0.1385820061 83.059364319 2189.6289063
2190.129 0.0 0.0 0.1371829957 78.705238342 2190.1289063
2190.629 0.0 0.0 0.1302160025 72.543998718 2190.6289063
2191.129 0.0 0.0 0.1447079927 68.61529541 2191.1289063
2191.629 0.0 0.0 0.1660510004 68.208946228 2191.6289063
2192.129 0.0 0.0 0.1661030054 70.086967468 2192.1289063
2192.629 0.0 0.0 0.1593579948 73.8540802 2192.6289063
2193.129 0.0 0.0 0.1501519978 79.696998596 2193.1289063
2193.629 0.0 0.0 0.140158996 87.675346375 2193.6289063
2194.129 0.0 0.0 0.1416340023 91.345359802 2194.1289063
2194.629 0.0 0.0 0.1467709988 88.649612427 2194.6289063
2195.129 0.0 0.0 0.161303997 84.634727478 2195.1289063
2195.629 0.0 0.0 0.1788379997 80.912025452 2195.6289063
2196.129 0.0 0.0 0.1540360004 78.010925293 2196.1289063
2196.629 0.0 0.0 0.1157170013 76.100448608 2196.6289063
2197.129 0.0 0.0 0.1200570017 76.256530762 2197.1289063
2197.629 0.0 0.0 0.1380179971 78.822723389 2197.6289063
2198.129 0.0 0.0 0.1551889926 82.094779968 2198.1289063
2198.629 0.0 0.0 0.1721069962 85.528541565 2198.6289063
2199.129 0.0 0.0 0.1622419953 88.82749939 2199.1289063
2199.629 0.0 0.0 0.1438249946 91.896980286 2199.6289063
2200.129 0.0 0.0 0.1462759972 92.615066528 2200.1289063
2200.629 0.0 0.0 0.1553899944 90.304214478 2200.6289063
2201.129 0.0 0.0 0.1527049989 88.148727417 2201.1289063
2201.629 0.0 0.0 0.1462530047 87.165313721 2201.6289063
2202.129 0.0 0.0 0.1342370063 89.269485474 2202.1289063
2202.629 0.0 0.0 0.1204459965 95.072853088 2202.6289063
2203.129 0.0 0.0 0.1225500032 97.795059204 2203.1289063
2203.629 0.0 0.0 0.1297290027 95.271217346 2203.6289063
2204.129 0.0 0.0 0.125315994 90.81678009 2204.1289063
2204.629 0.0 0.0 0.1172019988 85.490356445 2204.6289063
2205.129 0.0 0.0 0.1320029944 80.925941467 2205.1289063
2205.629 0.0 0.0 0.1541199982 77.645240784 2205.6289063
2206.129 0.0 0.0 0.1724900007 76.11101532 2206.1289063
2206.629 0.0 0.0 0.1896640062 76.471008301 2206.6289063
2207.129 0.0 0.0 0.1797440052 77.531463623 2207.1289063
2207.629 0.0 0.0 0.1611739993 78.911224365 2207.6289063
2208.129 0.0 0.0 0.1519159973 79.517799377 2208.1289063
2208.629 0.0 0.0 0.145630002 79.002365112 2208.6289063
2209.129 0.0 0.0 0.1536079943 78.96269989 2209.1289063
2209.629 0.0 0.0 0.1661410034 79.908950806 2209.6289063
2210.129 0.0 0.0 0.1546570063 81.025146484 2210.1289063
2210.629 0.0 0.0 0.1355040073 82.050735474 2210.6289063
2211.129 0.0 0.0 0.1307660043 81.217750549 2211.1289063
2211.629 0.0 0.0 0.1306300014 77.961700439 2211.6289063
2212.129 0.0 0.0 0.1281239986 74.632217407 2212.1289063
2212.629 0.0 0.0 0.124861002 71.979530334 2212.6289063
2213.129 0.0 0.0 0.1444219947 70.547172546 2213.1289063
2213.629 0.0 0.0 0.1712719947 70.50869751 2213.6289063
2214.129 0.0 0.0 0.1612520069 76.162582397 2214.1289063
2214.629 0.0 0.0 0.1394599974 88.88129425 2214.6289063
2215.129 0.0 0.0 0.131892994 98.681419373 2215.1289063
2215.629 0.0 0.0 0.1288689971 102.37535095 2215.6289063
2216.129 0.0 0.0 0.1172880009 101.52912903 2216.1289063
2216.629 0.0 0.0 0.1029750034 96.642799377 2216.6289063
2217.129 0.0 0.0 0.1050769985 90.601013184 2217.1289063
2217.629 0.0 0.0 0.1124200001 84.324821472 2217.6289063
2218.129 0.0 0.0 0.1360169947 80.396789551 2218.1289063
2218.629 0.0 0.0 0.1648029983 79.641517639 2218.6289063
2219.129 0.0 0.0 0.152324006 81.45790863 2219.1289063
2219.629 0.0 0.0 0.1266700029 85.654045105 2219.6289063
2220.129 0.0 0.0 0.1413139999 86.589637756 2220.1289063
2220.629 0.0 0.0 0.1688259989 82.463783264 2220.6289063
2221.129 0.0 0.0 0.1728460044 79.101600647 2221.1289063
2221.629 0.0 0.0 0.1693660021 78.362968445 2221.6289063
2222.129 0.0 0.0 0.1575129926 80.190597534 2222.1289063
2222.629 0.0 0.0 0.1429859996 84.566177368 2222.6289063
2223.129 0.0 0.0 0.139801994 88.533462524 2223.1289063
2223.629 0.0 0.0 0.1402399987 91.148544312 2223.6289063
2224.129 0.0 0.0 0.1394280046 92.795257568 2224.1289063
2224.629 0.0 0.0 0.1382170022 93.59614563 2224.6289063
2225.129 0.0 0.0 0.1388089955 93.458396912 2225.1289063
2225.629 0.0 0.0 0.1399759948 92.352371216 2225.6289063
