~Version information
VERS. 2.0:
WRAP. NO:
~Well
STRT.m 1499.8790000 :  
STOP.m 2416.3790000 :  
STEP.m 0.00000000 :  
NULL.  -999.250000 :  
COMP.    : COMPANY
WELL.  A10 : WELL
FLD.    : FIELD
LOC.    : LOCATION
SRVC.    : SERVICE COMPANY
DATE.  Monday, January 26 2009 14:04:02 : DATE
PROV.    : PROVINCE
UWI.    : UNIQUE WELL ID
API.    : API NUMBER
~Curve
DEPT.m   : DEPTH
NetGross.    : NetGross
Facies.    : Facies
Porosity.m3/m3   : Porosity
Gamma.gAPI   : Gamma
DEPTH.m   : trend
~Parameter

~Ascii
# ...
1758.629 0.5342652798 1.0 0.2484669983 75.823486328 1758.6290283
1759.129 0.4873402119 1.0 0.2633180022 71.656051636 1759.1290283
1759.629 0.5297035575 1.0 0.2786619961 68.028427124 1759.6290283
1760.129 0.6296451092 1.0 0.2729060054 67.518630981 1760.1290283
1760.629 0.7296526432 1.0 0.260412991 70.949798584 1760.6290283
1761.129 0.5732672811 1.0 0.2444819957 74.505371094 1761.1290283
1761.629 0.4579447508 1.0 0.2274529934 76.966773987 1761.6290283
1762.129 0.315402776 1.0 0.2324659973 78.831085205 1762.1290283
1762.629 0.4189570844 1.0 0.2445169985 80.257034302 1762.6290283
1763.129 0.7232381105 1.0 0.2488519996 81.366279602 1763.1290283
1763.629 0.5547860861 1.0 0.2507239878 82.197677612 1763.6290283
1764.129 0.3715288937 1.0 0.2469339967 83.068214417 1764.1290283
1764.629 0.2123060673 1.0 0.2413370013 84.079101563 1764.6290283
1765.129 0.1718497425 1.0 0.242693007 85.019050598 1765.1290283
1765.629 0.3805803359 1.0 0.2462700009 85.820602417 1765.6290283
1766.129 0.2087305933 1.0 0.2497559935 85.923736572 1766.1290283
1766.629 0.2191531062 1.0 0.2532120049 85.149650574 1766.6290283
1767.129 0.4487957358 1.0 0.2470320016 84.561645508 1767.1290283
1767.629 0.5382725 1.0 0.2377749979 84.49924469 1767.6290283
1768.129 0.7992483377 1.0 0.2266049981 84.77784729 1768.1290283
1768.629 0.7160825729 1.0 0.214824006 85.338546753 1768.6290283
1769.129 0.5915578604 1.0 0.2283290029 86.017158508 1769.1290283
1769.629 0.6353406906 1.0 0.2499070019 86.761276245 1769.6290283
1770.129 0.6293410063 1.0 0.2375019938 86.142486572 1770.1290283
1770.629 0.5789172649 1.0 0.2142470032 83.704696655 1770.6290283
1771.129 0.5693554878 1.0 0.2246900052 80.17666626 1771.1290283
1771.629 0.3505321443 1.0 0.2458930016 75.791099548 1771.6290283
1772.129 0.2538384795 1.0 0.2515279949 73.584991455 1772.1290283
1772.629 0.2784562111 1.0 0.2521939874 74.528053284 1772.6290283
1773.129 0.5246177316 1.0 0.2372960001 76.921615601 1773.1290283
1773.629 0.6644756794 1.0 0.2174289972 80.223304749 1773.6290283
1774.129 0.4001276195 1.0 0.2283969969 84.083633423 1774.1290283
1774.629 0.4770391583 1.0 0.2492090017 88.39100647 1774.6290283
1775.129 0.4201946855 1.0 0.2473070025 88.028465271 1775.1290283
1775.629 0.6375532746 1.0 0.2381519973 81.362228394 1775.6290283
1776.129 0.9570706487 1.0 0.2299239933 76.772766113 1776.1290283
1776.629 0.8122602701 1.0 0.2219929993 76.935890198 1776.6290283
1777.129 0.7651228905 1.0 0.2203850001 81.640281677 1777.1290283
1777.629 0.6851420999 1.0 0.2207960039 90.818481445 1777.6290283
1778.129 0.6434186697 1.0 0.2402549982 94.029685974 1778.1290283
1778.629 0.8751618862 2.0 0.2657960057 87.940292358 1778.6290283
1779.129 0.8161327243 2.0 0.2692759931 81.511314392 1779.1290283
1779.629 0.7434305549 2.0 0.265711993 77.603889465 1779.6290283
1780.129 0.7493022084 2.0 0.2466460019 76.55846405 1780.1290283
1780.629 0.7600660324 2.0 0.2226310074 78.483718872 1780.6290283
1781.129 0.7495783567 2.0 0.2160660028 81.513801575 1781.1290283
1781.629 0.8103215098 2.0 0.215072006 85.052955627 1781.6290283
1782.129 0.8852819204 2.0 0.2322189957 86.425064087 1782.1290283
1782.629 0.7621390224 2.0 0.2551580071 84.775680542 1782.6290283
1783.129 0.6905177832 2.0 0.2670429945 79.18838501 1783.1290283
1783.629 0.7380068302 2.0 0.2753989995 69.37059021 1783.6290283
1784.129 0.7949072123 2.0 0.2720650136 65.435333252 1784.1290283
1784.629 0.7839151621 2.0 0.2649990022 70.611602783 1784.6290283
1785.129 0.8189163804 2.0 0.268366009 77.210487366 1785.1290283
1785.629 0.882882297 2.0 0.2750630081 82.777023315 1785.6290283
1786.129 0.8830451965 2.0 0.2771120071 85.396453857 1786.1290283
1786.629 0.9042870998 2.0 0.2776759863 84.457435608 1786.6290283
1787.129 0.8984316587 2.0 0.2665759921 82.235656738 1787.1290283
1787.629 0.8280601501 2.0 0.2517530024 79.457710266 1787.6290283
1788.129 0.8620458841 2.0 0.2468609959 76.333488464 1788.1290283
1788.629 0.9462817907 2.0 0.2451409996 72.929992676 1788.6290283
1789.129 0.7648948431 2.0 0.2550440133 69.174957275 1789.1290283
1789.629 0.6952958107 2.0 0.2686580122 65.045326233 1789.6290283
1790.129 0.8549186587 2.0 0.2683500051 65.699699402 1790.1290283
1790.629 0.8182259202 2.0 0.2635959983 72.785133362 1790.6290283
1791.129 0.8398708105 2.0 0.2412009984 80.905082703 1791.1290283
1791.629 0.903193593 2.0 0.2131720036 88.336486816 1791.6290283
1792.129 0.8560756445 2.0 0.2126419991 91.001098633 1792.1290283
1792.629 0.7889192104 2.0 0.2208909988 87.596763611 1792.6290283
1793.129 0.7598965168 2.0 0.2266079932 84.278274536 1793.1290283
1793.629 0.8152068853 2.0 0.231517002 83.010795593 1793.6290283
1794.129 0.803291142 2.0 0.2465900034 82.671859741 1794.1290283
1794.629 0.8040732145 2.0 0.2649079859 82.903068542 1794.6290283
1795.129 0.8505687118 2.0 0.2537910044 82.990936279 1795.1290283
1795.629 0.9276727438 2.0 0.2332759947 82.707649231 1795.6290283
1796.129 0.9341806769 2.0 0.2405959964 82.1978302 1796.1290283
1796.629 0.7180876732 2.0 0.2568039894 81.507659912 1796.6290283
1797.129 0.6373339891 2.0 0.2481700033 80.614097595 1797.1290283
1797.629 0.8534270525 2.0 0.2316029966 79.509788513 1797.6290283
1798.129 0.9798777103 2.0 0.2272000015 77.886924744 1798.1290283
1798.629 0.8924641609 2.0 0.226680994 75.647216797 1798.6290283
1799.129 0.8382389545 2.0 0.2381120026 73.022460938 1799.1290283
1799.629 0.7479739785 2.0 0.25335899 70.086669922 1799.6290283
1800.129 0.7340804338 2.0 0.268543005 67.136749268 1800.1290283
1800.629 0.7563883066 2.0 0.2837060094 64.267494202 1800.6290283
1801.129 0.7095777392 2.0 0.276639998 62.646244049 1801.1290283
1801.629 0.8649482727 2.0 0.2624759972 62.645717621 1801.6290283
1802.129 0.7986288071 2.0 0.2637459934 63.515785217 1802.1290283
1802.629 0.7723072171 2.0 0.2699429989 65.016937256 1802.6290283
1803.129 0.8215051889 2.0 0.2472490072 67.150314331 1803.1290283
1803.629 0.7112417221 2.0 0.2153310031 69.916275024 1803.6290283
1804.129 0.7355870008 2.0 0.2301470041 74.707542419 1804.1290283
1804.629 0.7384175062 2.0 0.2598850131 81.968818665 1804.6290283
1805.129 0.7576557398 2.0 0.2664169967 87.684249878 1805.1290283
1805.629 0.8124380112 2.0 0.2655400038 90.571640015 1805.6290283
1806.129 0.9210277796 2.0 0.2634769976 91.128448486 1806.1290283
1806.629 0.907299757 2.0 0.2610349953 89.513519287 1806.6290283
1807.129 0.8386923075 2.0 0.2537370026 88.607391357 1807.1290283
1807.629 0.7914589047 2.0 0.2448879927 89.329795837 1807.6290283
1808.129 0.6697881222 2.0 0.2322770059 89.286262512 1808.1290283
1808.629 0.6956096888 2.0 0.2184659988 87.712280273 1808.6290283
1809.129 0.7793467045 2.0 0.237688005 84.658706665 1809.1290283
1809.629 0.3934588134 0.0 0.2674579918 80.141784668 1809.6290283
1810.129 0.0 0.0 0.2710930109 78.966041565 1810.1290283
1810.629 0.0 0.0 0.2663820088 82.665527344 1810.6290283
1811.129 0.0 0.0 0.2617439926 86.283401489 1811.1290283
1811.629 0.0 0.0 0.2571290135 88.237014771 1811.6290283
1812.129 0.0 0.0 0.2612130046 88.269851685 1812.1290283
1812.629 0.2811119556 1.0 0.2680740058 86.300033569 1812.6290283
1813.129 0.3910211027 1.0 0.2651079893 86.090240479 1813.1290283
1813.629 0.1851200461 1.0 0.2590030134 88.841873169 1813.6290283
1814.129 0.505720377 1.0 0.2495680004 91.401924133 1814.1290283
1814.629 0.5800059438 1.0 0.2390699983 92.763679504 1814.6290283
1815.129 0.2364255786 1.0 0.2365480065 92.35118866 1815.1290283
1815.629 0.0869291276 1.0 0.2365739942 89.980545044 1815.6290283
1816.129 0.3067752421 1.0 0.2384379953 88.123023987 1816.1290283
1816.629 0.801966548 1.0 0.2408889979 87.567672729 1816.6290283
1817.129 0.6489116549 1.0 0.2287130058 87.240745544 1817.1290283
1817.629 0.2683730721 1.0 0.2118670046 86.799423218 1817.6290283
1818.129 0.2701370716 1.0 0.2207860053 85.972770691 1818.1290283
1818.629 0.1554843336 0.0 0.2379309982 84.67427063 1818.6290283
1819.129 0.0 0.0 0.2363499999 84.289802551 1819.1290283
1819.629 0.0 0.0 0.2287909985 85.261871338 1819.6290283
1820.129 0.0 0.0 0.2250169963 85.685165405 1820.1290283
1820.629 0.0 0.0 0.2224529982 84.951370239 1820.6290283
