~Version information
VERS. 2.0:
WRAP. NO:
~Well
STRT.m 1499.8790000 :  
STOP.m 2416.3790000 :  
STEP.m 0.00000000 :  
NULL.  -999.250000 :  
COMP.    : COMPANY
WELL.  A10 : WELL
FLD.    : FIELD
LOC.    : LOCATION
SRVC.    : SERVICE COMPANY
DATE.  Monday, January 26 2009 14:04:02 : DATE
PROV.    : PROVINCE
UWI.    : UNIQUE WELL ID
API.    : API NUMBER
~Curve
DEPT.m   : DEPTH
NetGross.    : NetGross
Facies.    : Facies
Porosity.m3/m3   : Porosity
Gamma.gAPI   : Gamma
DEPTH.m   : trend
~Parameter

~Ascii
# ...
1632.129 0.2951571941 1.0 0.2570390105 75.982032776 1632.1290283
1632.629 0.4582372606 1.0 0.2373699993 84.78679657 1632.6290283
1633.129 0.7976335287 1.0 0.2277040035 91.092933655 1633.1290283
1633.629 0.5 1.0 0.2212309986 92.432922363 1633.6290283
1634.129 0.2302628309 1.0 0.2268269956 91.579109192 1634.1290283
1634.629 0.730262816 1.0 0.2362760007 89.416687012 1634.6290283
1635.129 0.7718551159 1.0 0.2494940013 87.317680359 1635.1290283
1635.629 0.2718550861 1.0 0.2639139891 85.720169067 1635.6290283
1636.129 0.1120212898 1.0 0.2554340065 84.082336426 1636.1290283
1636.629 0.3788044453 1.0 0.2396419942 82.231163025 1636.6290283
1637.129 0.5706182718 3.0 0.239361003 80.330215454 1637.1290283
1637.629 0.5639716387 3.0 0.2440319955 78.431694031 1637.6290283
1638.129 0.6445844769 3.0 0.2547419965 76.790061951 1638.1290283
1638.629 0.701585412 3.0 0.2673799992 75.486564636 1638.6290283
1639.129 0.5713577867 3.0 0.2711209953 75.809127808 1639.1290283
1639.629 0.6045781374 3.0 0.2720200121 78.168968201 1639.6290283
1640.129 0.5833007693 3.0 0.2676210105 81.460197449 1640.1290283
1640.629 0.5979167819 3.0 0.2615300119 85.329719543 1640.6290283
1641.129 0.6182004213 3.0 0.2512120008 87.628707886 1641.1290283
1641.629 0.6129698753 3.0 0.2395440042 87.671066284 1641.6290283
1642.129 0.6484779119 3.0 0.2408950031 88.407180786 1642.1290283
1642.629 0.6782572865 3.0 0.2464019954 90.779075623 1642.6290283
1643.129 0.8317667246 1.0 0.2409979999 94.245239258 1643.1290283
1643.629 0.4422441125 1.0 0.2321089953 98.632774353 1643.6290283
1644.129 0.3105946183 1.0 0.2273470014 102.9054718 1644.1290283
1644.629 0.6019893885 1.0 0.223902002 106.73246002 1644.6290283
1645.129 0.7913947701 1.0 0.2226310074 109.27770233 1645.1290283
1645.629 0.7946740389 1.0 0.222055003 110.27426147 1645.6290283
1646.129 0.4446258843 1.0 0.2231730074 109.98178101 1646.1290283
1646.629 0.4046169817 1.0 0.2248319983 108.48314667 1646.6290283
1647.129 0.4360480309 1.0 0.2355999947 105.65146637 1647.1290283
1647.629 0.1857675016 1.0 0.2492759973 101.4462204 1647.6290283
1648.129 0.321603477 1.0 0.2516359985 97.1483078 1648.1290283
1648.629 0.6284643412 1.0 0.2503829896 93.166679382 1648.6290283
1649.129 0.5520336628 1.0 0.2386340052 89.476333618 1649.1290283
1649.629 0.4379195869 1.0 0.2235340029 86.069259644 1649.6290283
1650.129 0.4587160647 1.0 0.224763006 83.157180786 1650.1290283
1650.629 0.3923952281 1.0 0.2312069982 80.807693481 1650.6290283
1651.129 0.4276306033 1.0 0.2308620065 80.28351593 1651.1290283
1651.629 0.767641902 1.0 0.2283490002 81.987823486 1651.6290283
1652.129 0.5940686464 1.0 0.2336290032 86.038742065 1652.1290283
1652.629 0.3758735657 1.0 0.2413980067 92.473991394 1652.6290283
1653.129 0.4474554062 1.0 0.2418120056 94.059013367 1653.1290283
1653.629 0.268553555 1.0 0.2398770005 88.483909607 1653.6290283
1654.129 0.4633741975 1.0 0.2417120039 83.401054382 1654.1290283
1654.629 0.5033143759 1.0 0.2447499931 81.253753662 1654.6290283
1655.129 0.3435825408 1.0 0.2398390025 83.004066467 1655.1290283
1655.629 0.3933483064 1.0 0.2323900014 88.959152222 1655.6290283
1656.129 0.1681783348 1.0 0.2299109995 91.617622375 1656.1290283
1656.629 0.1454352587 1.0 0.2290180027 88.584388733 1656.6290283
1657.129 0.4306056499 1.0 0.2315769941 84.58367157 1657.1290283
1657.629 0.3206993639 1.0 0.2352370024 81.123878479 1657.6290283
1658.129 0.0395878814 1.0 0.2382459939 79.110557556 1658.1290283
1658.629 0.1346944571 1.0 0.2410459965 78.832847595 1658.6290283
1659.129 0.4180839658 1.0 0.2443359941 78.010475159 1659.1290283
1659.629 0.5873353481 3.0 0.2477820069 75.915390015 1659.6290283
1660.129 0.714111805 3.0 0.2481269985 73.772544861 1660.1290283
1660.629 0.7162887454 3.0 0.2474820018 71.973060608 1660.6290283
1661.129 0.6053263545 3.0 0.2642430067 71.062202454 1661.1290283
1661.629 0.5907936096 3.0 0.2865619957 71.214065552 1661.6290283
1662.129 0.5570325851 3.0 0.2786509991 71.354995728 1662.1290283
1662.629 0.5541455746 3.0 0.2610889971 71.142173767 1662.6290283
1663.129 0.5611788034 3.0 0.2409230024 71.044143677 1663.1290283
1663.629 0.624986887 3.0 0.2199250013 71.210502625 1663.6290283
1664.129 0.6369254589 3.0 0.2396489978 72.076660156 1664.1290283
1664.629 0.5954210758 3.0 0.2723760009 73.781639099 1664.6290283
1665.129 0.6831141114 3.0 0.2734450102 76.657699585 1665.1290283
1665.629 0.7714591026 3.0 0.2644059956 80.810943604 1665.6290283
1666.129 0.7201532722 3.0 0.2592360079 85.114318848 1666.1290283
1666.629 0.5454564095 1.0 0.2553029954 89.207969666 1666.6290283
1667.129 0.5003884435 1.0 0.2474139929 91.840408325 1667.1290283
1667.629 0.7845400572 1.0 0.2382619977 92.612030029 1667.6290283
1668.129 0.8253756762 1.0 0.2344779968 91.772209167 1668.1290283
1668.629 0.698931098 1.0 0.2324070036 89.40057373 1668.6290283
1669.129 0.7812933922 1.0 0.2509590089 86.769500732 1669.1290283
1669.629 0.7463291883 1.0 0.2760959864 84.285255432 1669.6290283
1670.129 0.4066288173 1.0 0.2563759983 84.164245605 1670.1290283
1670.629 0.1358495951 1.0 0.2223349959 87.11415863 1670.6290283
1671.129 0.4272347987 1.0 0.2328869998 87.864608765 1671.1290283
1671.629 0.3594228029 1.0 0.2576769888 84.732818604 1671.6290283
1672.129 0.2467213869 1.0 0.273416996 80.002723694 1672.1290283
1672.629 0.6812137365 1.0 0.2862690091 74.403549194 1672.6290283
1673.129 0.7377187014 1.0 0.2770229876 73.132240295 1673.1290283
1673.629 0.6256622076 1.0 0.2607229948 77.848121643 1673.6290283
1674.129 0.3224358857 1.0 0.2461789995 81.369163513 1674.1290283
1674.629 0.2513484657 1.0 0.2321950048 81.40221405 1674.6290283
1675.129 0.6114273071 1.0 0.239546001 79.241401672 1675.1290283
1675.629 0.4591047466 1.0 0.253708005 75.299911499 1675.6290283
1676.129 0.5412759781 1.0 0.2557390034 73.188529968 1676.1290283
1676.629 0.7771179676 1.0 0.2538970113 74.060157776 1676.6290283
1677.129 0.5415159464 1.0 0.2506949902 76.883148193 1677.1290283
1677.629 0.3680659533 1.0 0.2470590025 81.328140259 1677.6290283
1678.129 0.2998020053 1.0 0.2543379962 86.797683716 1678.1290283
1678.629 0.5213272572 1.0 0.265101999 93.101020813 1678.6290283
1679.129 0.382943213 1.0 0.2574540079 94.486671448 1679.1290283
1679.629 0.0731844902 1.0 0.2439280003 89.118247986 1679.6290283
1680.129 0.5731844902 1.0 0.2504099905 82.595329285 1680.1290283
1680.629 0.8203468919 1.0 0.263282001 76.705795288 1680.6290283
1681.129 0.5894714594 1.0 0.2641400099 71.418556213 1681.1290283
1681.629 0.3813499212 1.0 0.2611620128 66.723686218 1681.6290283
1682.129 0.4022945762 1.0 0.244570002 67.9818573 1682.1290283
1682.629 0.5005820394 1.0 0.2236319929 76.904678345 1682.6290283
1683.129 0.5053470731 1.0 0.2199150026 84.520843506 1683.1290283
1683.629 0.6106458902 1.0 0.2216950059 87.965904236 1683.6290283
1684.129 0.7538912296 1.0 0.2405740023 86.965507507 1684.1290283
1684.629 0.7683531046 1.0 0.2649129927 81.432044983 1684.6290283
1685.129 0.4766007662 1.0 0.2515760064 77.496231079 1685.1290283
1685.629 0.5060207248 1.0 0.2262109965 77.115539551 1685.6290283
1686.129 0.3596935272 0.0 0.229914993 77.261222839 1686.1290283
1686.629 0.0 0.0 0.242899999 76.966247559 1686.6290283
1687.129 0.0 0.0 0.238567993 75.957511902 1687.1290283
1687.629 0.0 0.0 0.2287060022 74.14780426 1687.6290283
1688.129 0.0 0.0 0.223921001 75.636192322 1688.1290283
1688.629 0.0 0.0 0.220758006 81.731483459 1688.6290283
1689.129 0.0 0.0 0.2453960031 86.364143372 1689.1290283
1689.629 0.0 0.0 0.2789109945 87.596244812 1689.6290283
1690.129 0.0 0.0 0.2907879949 83.281776428 1690.1290283
1690.629 0.0 0.0 0.2957560122 72.735534668 1690.6290283
1691.129 0.0 0.0 0.2720679939 65.888282776 1691.1290283
1691.629 0.0 0.0 0.2392300069 65.91078949 1691.6290283
1692.129 0.2875389457 3.0 0.2413859963 68.002235413 1692.1290283
1692.629 0.553166151 3.0 0.2547140121 70.629753113 1692.6290283
1693.129 0.503151834 3.0 0.246461004 72.498878479 1693.1290283
1693.629 0.4620836973 3.0 0.231317997 73.196304321 1693.6290283
1694.129 0.5729080439 3.0 0.234822005 75.030471802 1694.1290283
1694.629 0.6646313071 3.0 0.2442799956 78.738418579 1694.6290283
