~Version information
VERS. 2.0:
WRAP. NO:
~Well
STRT.m 1499.8790000 :  
STOP.m 2416.3790000 :  
STEP.m 0.00000000 :  
NULL.  -999.250000 :  
COMP.    : COMPANY
WELL.  A10 : WELL
FLD.    : FIELD
LOC.    : LOCATION
SRVC.    : SERVICE COMPANY
DATE.  Monday, January 26 2009 14:04:02 : DATE
PROV.    : PROVINCE
UWI.    : UNIQUE WELL ID
API.    : API NUMBER
~Curve
DEPT.m   : DEPTH
NetGross.    : NetGross
Facies.    : Facies
Porosity.m3/m3   : Porosity
Gamma.gAPI   : Gamma
DEPTH.m   : trend
~Parameter

~Ascii
# ...
2082.629 0.8294597864 2.0 0.2389480025 86.241920471 2082.6289063
2083.129 0.8762952089 2.0 0.2390519977 84.023979187 2083.1289063
2083.629 0.7290790677 2.0 0.2356629968 84.12297821 2083.6289063
2084.129 0.7923141718 2.0 0.2439219952 83.970199585 2084.1289063
2084.629 0.439530313 0.0 0.2558990121 82.745483398 2084.6289063
2085.129 0.0 0.0 0.2613770068 80.788581848 2085.1289063
2085.629 0.0 0.0 0.2647800148 78.207962036 2085.6289063
2086.129 0.0 0.0 0.263891995 75.069694519 2086.1289063
2086.629 0.0 0.0 0.2616339922 71.394882202 2086.6289063
2087.129 0.0 0.0 0.1833229959 69.769477844 2087.1289063
2087.629 0.0 0.0 0.1489470005 71.019134521 2087.6289063
2088.129 0.0 0.0 0.1415259987 73.99356842 2088.1289063
2088.629 0.0 0.0 0.1357569993 78.3254776 2088.6289063
2089.129 0.0 0.0 0.1430409998 80.019523621 2089.1289063
2089.629 0.0 0.0 0.1544930041 77.800041199 2089.6289063
2090.129 0.0 0.0 0.1604419947 76.012527466 2090.1289063
2090.629 0.0 0.0 0.1646340042 76.044448853 2090.6289063
2091.129 0.0 0.0 0.1469720006 77.459602356 2091.1289063
2091.629 0.0 0.0 0.1223310009 80.118690491 2091.6289063
2092.129 0.0 0.0 0.1222340018 81.218658447 2092.1289063
2092.629 0.0 0.0 0.1299719959 79.864494324 2092.6289063
2093.129 0.0 0.0 0.1437779963 78.302497864 2093.1289063
2093.629 0.0 0.0 0.1595209986 77.2498703 2093.6289063
2094.129 0.0 0.0 0.1600860059 76.672073364 2094.1289063
2094.629 0.0 0.0 0.1558050066 76.558067322 2094.6289063
2095.129 0.0 0.0 0.170490995 75.754081726 2095.1289063
2095.629 0.0 0.0 0.1912339926 73.891685486 2095.6289063
2096.129 0.0 0.0 0.1934570074 72.023155212 2096.1289063
2096.629 0.0 0.0 0.1897680014 70.484481812 2096.6289063
2097.129 0.0 0.0 0.1790360063 69.302833557 2097.1289063
2097.629 0.0 0.0 0.1660560071 68.48690033 2097.6289063
2098.129 0.0 0.0 0.1574330032 68.389793396 2098.1289063
2098.629 0.0 0.0 0.1501999944 69.124229431 2098.6289063
2099.129 0.0 0.0 0.1580339968 70.541694641 2099.1289063
2099.629 0.0 0.0 0.170679003 72.59475708 2099.6289063
2100.129 0.0 0.0 0.1672279984 75.404136658 2100.1289063
2100.629 0.0 0.0 0.1586380005 79.008407593 2100.6289063
2101.129 0.0 0.0 0.1431950033 79.693977356 2101.1289063
2101.629 0.0 0.0 0.1255629957 76.275177002 2101.6289063
2102.129 0.0 0.0 0.1389269978 72.142936707 2102.1289063
2102.629 0.0 0.0 0.1621879935 68.379943848 2102.6289063
2103.129 0.0 0.0 0.1670940071 65.709251404 2103.1289063
2103.629 0.0 0.0 0.1661390066 64.361724854 2103.6289063
2104.129 0.0 0.0 0.1529289931 67.96862793 2104.1289063
2104.629 0.0 0.0 0.1358049959 77.689407349 2104.6289063
2105.129 0.0 0.0 0.1341020018 86.545219421 2105.1289063
2105.629 0.0 0.0 0.137323007 92.307830811 2105.6289063
2106.129 0.0 0.0 0.1330820024 91.000045776 2106.1289063
2106.629 0.0 0.0 0.1264590025 81.352012634 2106.6289063
2107.129 0.0 0.0 0.1455039978 73.779449463 2107.1289063
2107.629 0.0 0.0 0.1727440059 71.608001709 2107.6289063
2108.129 0.0 0.0 0.1654350013 71.434677124 2108.1289063
2108.629 0.0 0.0 0.1470939964 72.172935486 2108.6289063
2109.129 0.0 0.0 0.1511300057 72.403938293 2109.1289063
2109.629 0.0 0.0 0.1623100042 71.67464447 2109.6289063
2110.129 0.0 0.0 0.1584890038 70.613777161 2110.1289063
2110.629 0.0 0.0 0.1498769969 69.422073364 2110.6289063
2111.129 0.0 0.0 0.1485580057 68.999549866 2111.1289063
2111.629 0.0 0.0 0.1495669931 69.633560181 2111.6289063
2112.129 0.0 0.0 0.1483950019 73.228012085 2112.1289063
2112.629 0.0 0.0 0.1465259939 80.390800476 2112.6289063
2113.129 0.0 0.0 0.1498820037 84.411804199 2113.1289063
2113.629 0.0 0.0 0.1549050063 83.1485672 2113.6289063
2114.129 0.0 0.0 0.149131 79.255348206 2114.1289063
2114.629 0.0 0.0 0.1399099976 73.57964325 2114.6289063
2115.129 0.0 0.0 0.1508370042 68.659408569 2115.1289063
2115.629 0.0 0.0 0.1681980044 65.305015564 2115.6289063
2116.129 0.0 0.0 0.1800699979 63.108165741 2116.1289063
2116.629 0.0 0.0 0.1901900023 61.938503265 2116.6289063
2117.129 0.0 0.0 0.1738329977 61.686878204 2117.1289063
2117.629 0.0 0.0 0.1490229964 62.318435669 2117.6289063
2118.129 0.0 0.0 0.1598660052 64.857536316 2118.1289063
2118.629 0.0 0.0 0.1820929945 69.631263733 2118.6289063
2119.129 0.0 0.0 0.1809650064 73.727203369 2119.1289063
2119.629 0.0 0.0 0.1723809987 76.215446472 2119.6289063
2120.129 0.0 0.0 0.1498759985 77.711837769 2120.1289063
2120.629 0.0 0.0 0.1229259968 78.413009644 2120.6289063
2121.129 0.0 0.0 0.1302990019 80.510322571 2121.1289063
2121.629 0.0 0.0 0.1486299932 84.703468323 2121.6289063
2122.129 0.0 0.0 0.147706002 86.160903931 2122.1289063
2122.629 0.0 0.0 0.1406340003 83.339958191 2122.6289063
2123.129 0.0 0.0 0.1465619951 77.276420593 2123.1289063
2123.629 0.0 0.0 0.1566420048 68.300994873 2123.6289063
2124.129 0.0 0.0 0.1687259972 64.488395691 2124.1289063
2124.629 0.0 0.0 0.1814489961 68.416770935 2124.6289063
2125.129 0.0 0.0 0.1749580055 73.38848114 2125.1289063
2125.629 0.0 0.0 0.1623319983 77.265037537 2125.6289063
2126.129 0.0 0.0 0.1462640017 80.107223511 2126.1289063
2126.629 0.0 0.0 0.1290969998 81.93447876 2126.6289063
2127.129 0.0 0.0 0.1344289929 81.877189636 2127.1289063
2127.629 0.0 0.0 0.1469459981 79.657699585 2127.6289063
2128.129 0.0 0.0 0.1573009938 78.728233337 2128.1289063
2128.629 0.0 0.0 0.1669660062 80.191047668 2128.6289063
2129.129 0.0 0.0 0.1529729962 84.27759552 2129.1289063
2129.629 0.0 0.0 0.1314270049 91.061767578 2129.6289063
2130.129 0.0 0.0 0.1328600049 93.657234192 2130.1289063
2130.629 0.0 0.0 0.1416299939 89.865249634 2130.6289063
2131.129 0.0 0.0 0.1323219985 85.187446594 2131.1289063
2131.629 0.0 0.0 0.1172410026 81.380447388 2131.6289063
2132.129 0.0 0.0 0.1212349981 79.051010132 2132.1289063
2132.629 0.0 0.0 0.1313190013 78.39289093 2132.6289063
2133.129 0.0 0.0 0.137620002 78.713790894 2133.1289063
2133.629 0.0 0.0 0.142711997 79.792663574 2133.6289063
2134.129 0.0 0.0 0.1412629932 81.602279663 2134.1289063
2134.629 0.0 0.0 0.137725994 84.13394165 2134.6289063
2135.129 0.0 0.0 0.1321530044 87.643913269 2135.1289063
2135.629 0.0 0.0 0.1259299964 92.214012146 2135.6289063
2136.129 0.0 0.0 0.1370279938 93.905754089 2136.1289063
2136.629 0.0 0.0 0.1536560059 91.461639404 2136.6289063
2137.129 0.0 0.0 0.1575029939 88.466003418 2137.1289063
2137.629 0.0 0.0 0.1572699994 86.063301086 2137.6289063
2138.129 0.0 0.0 0.1492359936 85.857658386 2138.1289063
2138.629 0.0 0.0 0.1387110054 88.361236572 2138.6289063
2139.129 0.0 0.0 0.1422290057 88.890510559 2139.1289063
2139.629 0.0 0.0 0.1502310038 85.950073242 2139.6289063
2140.129 0.0 0.0 0.1636340022 81.849441528 2140.1289063
2140.629 0.0 0.0 0.1787630022 77.326034546 2140.6289063
2141.129 0.0 0.0 0.1781830043 73.536506653 2141.1289063
2141.629 0.0 0.0 0.1725880057 70.850158691 2141.6289063
2142.129 0.0 0.0 0.1618400067 70.741226196 2142.1289063
2142.629 0.0 0.0 0.1494459957 73.680427551 2142.6289063
2143.129 0.0 0.0 0.1463340074 77.141769409 2143.1289063
2143.629 0.0 0.0 0.1461859941 80.318763733 2143.6289063
2144.129 0.0 0.0 0.1533489972 80.225021362 2144.1289063
2144.629 0.0 0.0 0.162845999 75.907035828 2144.6289063
2145.129 0.0 0.0 0.1533260047 73.53604126 2145.1289063
2145.629 0.0 0.0 0.1377339959 75.082443237 2145.6289063
2146.129 0.0 0.0 0.1422449946 78.602973938 2146.1289063
2146.629 0.0 0.0 0.1531749964 83.477165222 2146.6289063
2147.129 0.0 0.0 0.140952006 87.766227722 2147.1289063
2147.629 0.0 0.0 0.1213369966 90.851112366 2147.6289063
2148.129 0.0 0.0 0.1166689992 91.435829163 2148.1289063
2148.629 0.0 0.0 0.1167730018 89.106590271 2148.6289063
2149.129 0.0 0.0 0.1410340071 85.520744324 2149.1289063
2149.629 0.0 0.0 0.1730089933 81.207435608 2149.6289063
2150.129 0.0 0.0 0.1646440029 80.497924805 2150.1289063
2150.629 0.0 0.0 0.1433999985 84.775108337 2150.6289063
2151.129 0.0 0.0 0.1473080069 87.425750732 2151.1289063
2151.629 0.0 0.0 0.159246996 86.3383255 2151.6289063
2152.129 0.0 0.0 0.1633159965 82.920631409 2152.1289063
2152.629 0.0 0.0 0.164873004 77.622192383 2152.6289063
2153.129 0.0 0.0 0.1665630043 75.798965454 2153.1289063
2153.629 0.0 0.0 0.168294996 79.161079407 2153.6289063
