~Version information
VERS. 2.0:
WRAP. NO:
~Well
STRT.m 1499.8790000 :  
STOP.m 2416.3790000 :  
STEP.m 0.00000000 :  
NULL.  -999.250000 :  
COMP.    : COMPANY
WELL.  A10 : WELL
FLD.    : FIELD
LOC.    : LOCATION
SRVC.    : SERVICE COMPANY
DATE.  Monday, January 26 2009 14:04:02 : DATE
PROV.    : PROVINCE
UWI.    : UNIQUE WELL ID
API.    : API NUMBER
~Curve
DEPT.m   : DEPTH
NetGross.    : NetGross
Facies.    : Facies
Porosity.m3/m3   : Porosity
Gamma.gAPI   : Gamma
DEPTH.m   : trend
~Parameter

~Ascii
# ...
1570.129 0.9065232277 2.0 0.2642430067 62.948841095 1570.1290283
1570.629 0.7402703166 2.0 0.2561100125 59.584518433 1570.6290283
1571.129 0.6394426227 2.0 0.2671380043 56.881599426 1571.1290283
1571.629 0.6579763889 2.0 0.2842839956 55.136535645 1571.6290283
1572.129 0.7874343991 2.0 0.270848006 56.251449585 1572.1290283
1572.629 0.7986673117 2.0 0.2476480007 60.833667755 1572.6290283
1573.129 0.7393191457 2.0 0.2557530105 67.345085144 1573.1290283
1573.629 0.7638500333 2.0 0.273853004 75.294593811 1573.6290283
1574.129 0.8061648607 2.0 0.2674239874 84.064476013 1574.1290283
1574.629 0.7953702807 2.0 0.2531639934 93.457496643 1574.6290283
1575.129 0.8264123797 2.0 0.25297001 97.244682312 1575.1290283
1575.629 0.8542209268 2.0 0.2572669983 93.437179565 1575.6290283
1576.129 0.8333902359 2.0 0.2618179917 85.800926208 1576.1290283
1576.629 0.7578870654 2.0 0.2664510012 75.538345337 1576.6290283
1577.129 0.7849900723 2.0 0.2698599994 68.23928833 1577.1290283
1577.629 0.8879834414 2.0 0.2728779912 65.688560486 1577.6290283
1578.129 0.7971268892 2.0 0.2633860111 66.21156311 1578.1290283
1578.629 0.4596704841 1.0 0.2498999983 69.273605347 1578.6290283
1579.129 0.0950924456 1.0 0.2387579978 74.008728027 1579.1290283
1579.629 0.0 1.0 0.2283640057 80.140449524 1579.6290283
1580.129 0.0821356326 1.0 0.2259930074 86.236587524 1580.1290283
1580.629 0.2647503912 1.0 0.2261839956 91.839874268 1580.6290283
1581.129 0.4529494047 1.0 0.2309429944 95.242744446 1581.1290283
1581.629 0.5698760748 1.0 0.2371599972 95.899986267 1581.6290283
1582.129 0.5581997633 1.0 0.232870996 94.425422668 1582.1290283
1582.629 0.5193917751 1.0 0.225226 91.015022278 1582.6290283
1583.129 0.3887658417 1.0 0.2313559949 87.080711365 1583.1290283
1583.629 0.2020795941 1.0 0.2418829948 83.073280334 1583.6290283
1584.129 0.339155823 1.0 0.2464230061 80.033912659 1584.1290283
1584.629 0.5983531475 1.0 0.2490500063 78.295021057 1584.6290283
1585.129 0.5465105176 1.0 0.2450879961 77.703857422 1585.1290283
1585.629 0.5505993366 1.0 0.2390220016 78.211639404 1585.6290283
1586.129 0.5978253484 1.0 0.2371779978 78.372161865 1586.1290283
1586.629 0.6562022567 1.0 0.2366829962 77.723670959 1586.6290283
1587.129 0.4725278914 1.0 0.2523660064 77.032516479 1587.1290283
1587.629 0.4720266163 2.0 0.2732149959 76.543403625 1587.6290283
1588.129 0.7671349645 2.0 0.2621049881 76.26184845 1588.1290283
1588.629 0.6745334268 2.0 0.2407899946 76.189651489 1588.6290283
1589.129 0.6900061369 2.0 0.2490870059 75.086158752 1589.1290283
1589.629 0.7770996094 2.0 0.2668380141 72.555259705 1589.6290283
1590.129 0.7899403572 2.0 0.2781780064 70.821884155 1590.1290283
1590.629 0.8230377436 2.0 0.2874720097 70.596435547 1590.6290283
1591.129 0.7855057716 2.0 0.2761690021 72.21912384 1591.1290283
1591.629 0.7893146276 2.0 0.2582899928 75.798568726 1591.6290283
1592.129 0.8351056576 2.0 0.2477989942 76.575828552 1592.1290283
1592.629 0.8259181976 2.0 0.2396679968 73.031440735 1592.6290283
1593.129 0.8366172314 2.0 0.2483939976 70.175994873 1593.1290283
1593.629 0.8497846723 2.0 0.2625020146 69.609321594 1593.6290283
1594.129 0.8673999906 2.0 0.2656399906 72.692619324 1594.1290283
1594.629 0.7327347994 2.0 0.2652760148 79.86051178 1594.6290283
1595.129 0.442874372 1.0 0.2382819951 87.913818359 1595.1290283
1595.629 0.2386969179 1.0 0.2027850002 95.831077576 1595.6290283
1596.129 0.3429507613 1.0 0.2073909938 100.99050903 1596.1290283
1596.629 0.3617983758 1.0 0.2248020023 102.55497742 1596.6290283
1597.129 0.2634418011 1.0 0.2487239987 98.152709961 1597.1290283
1597.629 0.3994632363 1.0 0.2747240067 87.026420593 1597.6290283
1598.129 0.3144077659 1.0 0.2788670063 79.942932129 1598.1290283
1598.629 0.567794323 1.0 0.276030004 80.339981079 1598.6290283
1599.129 0.5 1.0 0.2686969936 83.314407349 1599.1290283
1599.629 0.3966898024 1.0 0.2599259913 87.300689697 1599.6290283
1600.129 0.8767182231 1.0 0.2520180047 90.476623535 1600.1290283
1600.629 0.6184777617 1.0 0.244385004 92.260429382 1600.6290283
1601.129 0.2442243397 1.0 0.2506400049 91.926940918 1601.1290283
1601.629 0.6057749987 1.0 0.2613300085 89.244628906 1601.6290283
1602.129 0.7062852979 1.0 0.2560299933 86.293861389 1602.1290283
1602.629 0.5745941401 1.0 0.2456250042 83.738883972 1602.6290283
1603.129 0.6414757967 1.0 0.2503840029 83.713668823 1603.1290283
1603.629 0.3339336812 1.0 0.2599849999 86.89957428 1603.6290283
1604.129 0.4393012226 1.0 0.2554450035 88.476821899 1604.1290283
1604.629 0.6647726297 1.0 0.2463890016 86.906509399 1604.6290283
1605.129 0.4493598938 1.0 0.2416950017 84.239402771 1605.1290283
1605.629 0.4682050943 1.0 0.2383950055 81.130264282 1605.6290283
1606.129 0.7001847029 1.0 0.2255160064 80.11101532 1606.1290283
1606.629 0.7052623034 1.0 0.2095779926 81.99005127 1606.6290283
1607.129 0.6833664179 2.0 0.2223059982 83.767883301 1607.1290283
1607.629 0.7808748484 2.0 0.2441869974 84.486808777 1607.6290283
1608.129 0.8836669922 2.0 0.2460930049 84.657592773 1608.1290283
1608.629 0.8538751602 2.0 0.2416229993 84.443313599 1608.6290283
1609.129 0.796251595 2.0 0.2456849962 84.611541748 1609.1290283
1609.629 0.767116487 2.0 0.252471 85.407348633 1609.6290283
1610.129 0.746643424 2.0 0.2549979985 85.417236328 1610.1290283
1610.629 0.7788813114 2.0 0.2561649978 84.189910889 1610.6290283
1611.129 0.8072446585 2.0 0.2490680069 82.148895264 1611.1290283
1611.629 0.8933579922 2.0 0.2393320054 79.429420471 1611.6290283
1612.129 0.8139697313 2.0 0.2455919981 76.830253601 1612.1290283
1612.629 0.682377696 2.0 0.2569580078 74.606437683 1612.6290283
1613.129 0.7538879514 2.0 0.2488999963 73.220161438 1613.1290283
1613.629 0.7758606672 2.0 0.2346400023 72.818992615 1613.6290283
1614.129 0.7781119347 2.0 0.2450859994 73.135604858 1614.1290283
1614.629 0.8589629531 2.0 0.2634209991 74.084632874 1614.6290283
1615.129 0.7908180952 2.0 0.258148998 74.325912476 1615.1290283
1615.629 0.7811871171 2.0 0.2453410029 73.431564331 1615.6290283
1616.129 0.7884037495 2.0 0.2507610023 74.100120544 1616.1290283
1616.629 0.7860109806 2.0 0.2620030046 77.193199158 1616.6290283
1617.129 0.8192158937 2.0 0.2489040047 82.437789917 1617.1290283
1617.629 0.830037117 2.0 0.2280350029 89.74671936 1617.6290283
1618.129 0.8162937164 2.0 0.2294470072 94.743247986 1618.1290283
1618.629 0.7519642115 2.0 0.2379730046 96.029960632 1618.6290283
1619.129 0.7353829145 2.0 0.2349440008 93.729881287 1619.1290283
1619.629 0.7369654179 2.0 0.2282270044 87.882316589 1619.6290283
1620.129 0.7067406178 2.0 0.2584249973 78.346046448 1620.1290283
1620.629 0.7605194449 2.0 0.3004089892 65.075996399 1620.6290283
1621.129 0.7895431519 2.0 0.2774659991 60.791912079 1621.1290283
1621.629 0.7610998154 2.0 0.233792007 69.555076599 1621.6290283
1622.129 0.7399591208 2.0 0.2353589982 78.888244629 1622.1290283
1622.629 0.8402476311 2.0 0.2513709962 84.807533264 1622.6290283
1623.129 0.9652659893 2.0 0.2528440058 86.111427307 1623.1290283
1623.629 0.8728128672 2.0 0.2496740073 82.416282654 1623.6290283
1624.129 0.7714428902 2.0 0.2454729974 79.253585815 1624.1290283
1624.629 0.5847063065 2.0 0.2409420013 78.38948822 1624.6290283
1625.129 0.3010765314 1.0 0.2508090138 78.647628784 1625.1290283
1625.629 0.3578305244 1.0 0.2652739882 79.652397156 1625.6290283
1626.129 0.3408135176 1.0 0.2560369968 81.467910767 1626.1290283
1626.629 0.5307759643 1.0 0.2392320037 84.114616394 1626.6290283
1627.129 0.6147332788 1.0 0.2367230058 85.045227051 1627.1290283
1627.629 0.4264021814 1.0 0.2387789935 83.446411133 1627.6290283
1628.129 0.4202907979 1.0 0.2420440018 81.450462341 1628.1290283
1628.629 0.361094594 1.0 0.2456949949 79.738189697 1628.6290283
1629.129 0.2514302135 1.0 0.2480529994 79.068374634 1629.1290283
1629.629 0.193383649 1.0 0.2499970049 79.683273315 1629.6290283
1630.129 0.5492246151 1.0 0.2497929931 78.841873169 1630.1290283
1630.629 0.4414077401 1.0 0.2489040047 75.668983459 1630.6290283
1631.129 0.1357756853 1.0 0.2575039864 73.200843811 1631.1290283
1631.629 0.2161931992 1.0 0.2691330016 72.406867981 1631.6290283
