~Version information
VERS. 2.0:
WRAP. NO:
~Well
STRT.m 1499.8790000 :  
STOP.m 2416.3790000 :  
STEP.m 0.00000000 :  
NULL.  -999.250000 :  
COMP.    : COMPANY
WELL.  A10 : WELL
FLD.    : FIELD
LOC.    : LOCATION
SRVC.    : SERVICE COMPANY
DATE.  Monday, January 26 2009 14:04:02 : DATE
PROV.    : PROVINCE
UWI.    : UNIQUE WELL ID
API.    : API NUMBER
~Curve
DEPT.m   : DEPTH
NetGross.    : NetGross
Facies.    : Facies
Porosity.m3/m3   : Porosity
Gamma.gAPI   : Gamma
DEPTH.m   : trend
~Parameter

~Ascii
# ...
1954.629 0.4030753374 1.0 0.2514710128 80.166763306 1954.6290283
1955.129 0.4898881614 1.0 0.2407149971 80.859100342 1955.1290283
1955.629 0.7743817568 1.0 0.2262959927 81.15397644 1955.6290283
1956.129 0.5370209217 1.0 0.2325010002 79.795623779 1956.1290283
1956.629 0.2538632751 1.0 0.2452909946 76.383094788 1956.6290283
1957.129 0.3594523966 1.0 0.2622739971 72.322982788 1957.1290283
1957.629 0.5189230442 1.0 0.2805939913 68.064376831 1957.6290283
1958.129 0.7757579684 1.0 0.2664720118 66.781776428 1958.1290283
1958.629 0.7084626555 1.0 0.2419909984 69.488739014 1958.6290283
1959.129 0.566400826 1.0 0.2369740009 72.928947449 1959.1290283
1959.629 0.5210586786 1.0 0.2381709963 76.062683105 1959.6290283
1960.129 0.7183346152 1.0 0.2287559956 78.639373779 1960.1290283
1960.629 0.6991083622 1.0 0.2159519941 80.57901001 1960.6290283
1961.129 0.1991083324 1.0 0.233818993 79.574295044 1961.1290283
1961.629 0.0 0.0 0.2614789903 74.888526917 1961.6290283
1962.129 0.0 0.0 0.2778829932 73.679977417 1962.1290283
1962.629 0.0 0.0 0.2906939983 78.234222412 1962.6290283
1963.129 0.0 0.0 0.2675580084 86.708236694 1963.1290283
1963.629 0.0 0.0 0.2329459935 98.513572693 1963.6290283
1964.129 0.0 0.0 0.2280119956 103.08542633 1964.1290283
1964.629 0.0 0.0 0.232555002 97.050582886 1964.6290283
1965.129 0.0 0.0 0.243618995 90.553062439 1965.1290283
1965.629 0.0 0.0 0.2567659914 86.831733704 1965.6290283
1966.129 0.0 0.0 0.2476650029 85.556091309 1966.1290283
1966.629 0.0 0.0 0.2314610034 86.620613098 1966.6290283
1967.129 0.0 0.0 0.2284480035 86.561401367 1967.1290283
1967.629 0.0 0.0 0.2296469957 84.272476196 1967.6290283
1968.129 0.0 0.0 0.2231059968 82.283180237 1968.1290283
1968.629 0.0 0.0 0.2140929997 81.401115417 1968.6290283
1969.129 0.0 0.0 0.2115029991 81.656669617 1969.1290283
1969.629 0.0 0.0 0.2109639943 83.059539795 1969.6290283
1970.129 0.0 0.0 0.2178110033 83.161750793 1970.1290283
1970.629 0.0 0.0 0.2270160019 81.181678772 1970.6290283
1971.129 0.0 0.0 0.2402669936 80.103973389 1971.1290283
1971.629 0.0 0.0 0.2548100054 80.881591797 1971.6290283
1972.129 0.0 0.0 0.2554779947 83.941421509 1972.1290283
1972.629 0.0 0.0 0.2517159879 89.419761658 1972.6290283
1973.129 0.0 0.0 0.2389370054 91.213592529 1973.1290283
1973.629 0.1549936384 0.0 0.2232789993 87.374290466 1973.6290283
1974.129 0.4796835184 1.0 0.2439779937 82.255386353 1974.1290283
1974.629 0.6987639666 1.0 0.2762840092 77.246902466 1974.6290283
1975.129 0.4497159719 1.0 0.2710599899 72.966583252 1975.1290283
1975.629 0.2676497102 1.0 0.2538520098 69.611671448 1975.6290283
1976.129 0.5813204646 1.0 0.2623539865 67.282745361 1976.1290283
1976.629 0.6994267106 1.0 0.2790659964 66.011932373 1976.6290283
1977.129 0.723685205 1.0 0.2770150006 66.013389587 1977.1290283
1977.629 0.5682541132 1.0 0.2689720094 67.355514526 1977.6290283
1978.129 0.5180934668 1.0 0.2538819909 70.710090637 1978.1290283
1978.629 0.6239174008 1.0 0.2365420014 76.291625977 1978.6290283
1979.129 0.5006140471 1.0 0.238142997 82.465797424 1979.1290283
1979.629 0.4909182787 1.0 0.2457920015 88.710777283 1979.6290283
1980.129 0.5968670845 1.0 0.2273399979 93.320335388 1980.1290283
1980.629 0.3460559845 1.0 0.2005549967 95.749694824 1980.6290283
1981.129 0.2991165221 1.0 0.2051649988 93.755729675 1981.1290283
1981.629 0.5752416253 1.0 0.2198009938 86.62223053 1981.6290283
1982.129 0.7761250734 1.0 0.2495599985 79.952308655 1982.1290283
1982.629 0.6912505031 1.0 0.2841480076 75.534988403 1982.6290283
1983.129 0.1912504882 1.0 0.2833299935 72.427345276 1983.1290283
1983.629 0.0014955861 1.0 0.2712070048 70.328323364 1983.6290283
1984.129 0.4171753526 1.0 0.2668040097 69.276405334 1984.1290283
1984.629 0.7184922695 1.0 0.264865011 69.283882141 1984.6290283
1985.129 0.5158666372 1.0 0.2645109892 69.499252319 1985.1290283
1985.629 0.5929985642 1.0 0.2646630108 69.650642395 1985.6290283
1986.129 0.3799444139 1.0 0.2694739997 70.127922058 1986.1290283
1986.629 0.0 0.0 0.2757720053 71.05557251 1986.6290283
1987.129 0.0 0.0 0.2617020011 73.503036499 1987.1290283
1987.629 0.0 0.0 0.241128996 77.811805725 1987.6290283
1988.129 0.0 0.0 0.2365559936 80.034301758 1988.1290283
1988.629 0.0 0.0 0.2370910048 78.910125732 1988.6290283
1989.129 0.0 0.0 0.244005993 76.623176575 1989.1290283
1989.629 0.0 0.0 0.2529579997 73.870758057 1989.6290283
1990.129 0.3035379946 0.0 0.2637769878 75.60949707 1990.1290283
1990.629 0.5551482439 1.0 0.2751919925 83.421989441 1990.6290283
1991.129 0.3867915273 1.0 0.2546879947 88.228523254 1991.1290283
1991.629 0.4676816165 1.0 0.2239930034 87.130027771 1991.6290283
1992.129 0.554019928 1.0 0.2148510069 82.354942322 1992.1290283
1992.629 0.4168199301 1.0 0.2125920057 74.61479187 1992.6290283
1993.129 0.2752991617 1.0 0.2279690057 69.202911377 1993.1290283
1993.629 0.2697694302 1.0 0.2489780039 67.809402466 1993.6290283
1994.129 0.530847609 1.0 0.2539390028 69.629875183 1994.1290283
1994.629 0.5553280711 1.0 0.2537769973 74.407478333 1994.6290283
1995.129 0.4168123007 1.0 0.2427279949 81.149215698 1995.1290283
1995.629 0.3589231968 1.0 0.2282029986 89.538017273 1995.6290283
1996.129 0.6563619971 1.0 0.217640996 92.71068573 1996.1290283
1996.629 0.7331979275 1.0 0.200763002 88.475852966 1996.6290283
1997.129 0.7331979275 1.0 0.2019349933 83.100242615 1997.1290283
1997.629 0.7162465453 1.0 0.2096430063 78.584739685 1997.6290283
1998.129 0.7162465453 1.0 0.2278729975 74.876228333 1998.1290283
1998.629 0.8803247213 1.0 0.2494630069 71.957756042 1998.6290283
1999.129 0.5171431899 1.0 0.2476399988 72.092315674 1999.1290283
1999.629 0.493083179 1.0 0.2383410037 76.002464294 1999.6290283
2000.129 0.3562647402 0.0 0.2368700057 80.490005493 2000.1290283
2000.629 0.0 0.0 0.237898007 84.533790588 2000.6290283
2001.129 0.0 0.0 0.2216890007 88.116157532 2001.1290283
2001.629 0.0 0.0 0.1999749988 91.23147583 2001.6290283
2002.129 0.0 0.0 0.219174996 93.231193542 2002.1290283
2002.629 0.137599811 0.0 0.2514390051 93.908233643 2002.6290283
2003.129 0.444863379 1.0 0.2425229996 94.600036621 2003.1290283
2003.629 0.7785679102 1.0 0.2204589993 95.733627319 2003.6290283
2004.129 0.7658311129 1.0 0.2138379961 97.450088501 2004.1290283
2004.629 0.4641240239 1.0 0.2121479958 99.794448853 2004.6290283
2005.129 0.2221706808 1.0 0.2168360054 97.257728577 2005.1290283
2005.629 0.0525733754 0.0 0.2235600054 88.080955505 2005.6290283
2006.129 0.0 0.0 0.239004001 80.036735535 2006.1290283
2006.629 0.0 0.0 0.2572320104 75.606773376 2006.6290283
2007.129 0.0 0.0 0.251940012 77.046470642 2007.1290283
2007.629 0.0 0.0 0.2391390055 85.075950623 2007.6290283
2008.129 0.0 0.0 0.2252939939 90.132843018 2008.1290283
2008.629 0.0 0.0 0.2111150026 89.163986206 2008.6290283
2009.129 0.0 0.0 0.2184869945 87.248756409 2009.1290283
2009.629 0.0 0.0 0.2327399999 86.00894165 2009.6290283
2010.129 0.0 0.0 0.2322950065 87.25189209 2010.1290283
2010.629 0.0 0.0 0.2271569967 91.554664612 2010.6290283
2011.129 0.0 0.0 0.2438119948 95.143119812 2011.1290283
2011.629 0.0 0.0 0.2674260139 96.812225342 2011.6290283
2012.129 0.0 0.0 0.2574220002 96.827430725 2012.1290283
2012.629 0.0 0.0 0.2366839945 95.273475647 2012.6290283
2013.129 0.0 0.0 0.2363429964 91.26713562 2013.1290283
2013.629 0.0 0.0 0.2425139993 84.526428223 2013.6290283
2014.129 0.0 0.0 0.2414129972 78.831260681 2014.1290283
2014.629 0.0 0.0 0.2379900068 75.388504028 2014.6290283
2015.129 0.4231893122 2.21612903226 0.2434059978 72.983810425 2028.125
2015.629 0.7552838326 2.21612903226 0.251643002 71.229423523 2028.125
2016.129 0.7655335665 2.21612903226 0.2541620135 69.592811584 2028.125
2016.629 0.7584573627 2.21612903226 0.2548550069 67.903923035 2028.125
2017.129 0.6983219385 2.21612903226 0.2451100051 68.124427795 2028.125
2017.629 0.7264392376 2.21612903226 0.2320329994 70.880653381 2028.125
2018.129 0.7391194105 2.21612903226 0.2337909937 73.970672607 2028.125
2018.629 0.6792424321 2.21612903226 0.2402870059 76.691421509 2028.125
2019.129 0.6753895283 2.21612903226 0.253230989 75.239135742 2028.125
2019.629 0.7537161708 2.21612903226 0.2682340145 68.399284363 2028.125
