~Version information
VERS. 2.0:
WRAP. NO:
~Well
STRT.m 1499.8790000 :  
STOP.m 2416.3790000 :  
STEP.m 0.00000000 :  
NULL.  -999.250000 :  
COMP.    : COMPANY
WELL.  A10 : WELL
FLD.    : FIELD
LOC.    : LOCATION
SRVC.    : SERVICE COMPANY
DATE.  Monday, January 26 2009 14:04:02 : DATE
PROV.    : PROVINCE
UWI.    : UNIQUE WELL ID
API.    : API NUMBER
~Curve
DEPT.m   : DEPTH
NetGross.    : NetGross
Facies.    : Facies
Porosity.m3/m3   : Porosity
Gamma.gAPI   : Gamma
DEPTH.m   : trend
~Parameter

~Ascii
1501.629 0.0 0.0 0.2674280107 78.86945343 1501.6290283
1502.129 0.0 0.0 0.2560760081 78.008300781 1502.1290283
1502.629 0.0 0.0 0.2421260029 75.581558228 1502.6290283
1503.129 0.0 0.0 0.2385890037 73.238037109 1503.1290283
1503.629 0.0 0.0 0.2383770049 71.504173279 1503.6290283
1504.129 0.0 0.0 0.2408930063 71.459228516 1504.1290283
1504.629 0.0 0.0 0.2442789972 73.447799683 1504.6290283
1505.129 0.0 0.0 0.2560380101 75.830619812 1505.1290283
1505.629 0.0 0.0 0.2704719901 78.084259033 1505.6290283
1506.129 0.0 0.0 0.2665649951 79.799255371 1506.1290283
1506.629 0.0 0.0 0.2568019927 80.844871521 1506.6290283
1507.129 0.0 0.0 0.2562060058 80.381660461 1507.1290283
1507.629 0.0 0.0 0.2585380077 78.141601563 1507.6290283
1508.129 0.0 0.0 0.2530269921 77.074661255 1508.1290283
1508.629 0.0 0.0 0.2450129986 78.12273407 1508.6290283
1509.129 0.0 0.0 0.2493930012 80.32093811 1509.1290283
1509.629 0.0 0.0 0.2577309906 83.361206055 1509.6290283
1510.129 0.0 0.0 0.2614940107 86.870643616 1510.1290283
1510.629 0.0 0.0 0.2637969851 90.730186462 1510.6290283
1511.129 0.0 0.0 0.2444320023 93.797851563 1511.1290283
1511.629 0.0 0.0 0.2181479931 95.709030151 1511.6290283
1512.129 0.0 0.0 0.217283994 95.946472168 1512.1290283
1512.629 0.0 0.0 0.2245360017 94.345031738 1512.6290283
1513.129 0.0 0.0 0.2460149974 87.307769775 1513.1290283
1513.629 0.0 0.0 0.2720359862 73.686233521 1513.6290283
1514.129 0.0 0.0 0.2832089961 63.072395325 1514.1290283
1514.629 0.0 0.0 0.2896429896 58.528858185 1514.6290283
1515.129 0.0 0.0 0.2844020128 58.117874146 1515.1290283
1515.629 0.0 0.0 0.2754339874 61.220752716 1515.6290283
1516.129 0.0 0.0 0.2642689943 65.996002197 1516.1290283
1516.629 0.0 0.0 0.2524029911 71.855674744 1516.6290283
1517.129 0.0 0.0 0.2379110008 76.827644348 1517.1290283
1517.629 0.0 0.0 0.2225809991 80.282249451 1517.6290283
1518.129 0.0 0.0 0.2312339991 82.632019043 1518.1290283
1518.629 0.0 0.0 0.2475450039 84.008674622 1518.6290283
1519.129 0.0 0.0 0.2412340045 85.735664368 1519.1290283
1519.629 0.0 0.0 0.227699995 88.235557556 1519.6290283
1520.129 0.0 0.0 0.2406899929 90.149986267 1520.1290283
1520.629 0.0 0.0 0.2621479928 91.04523468 1520.6290283
1521.129 0.0 0.0 0.2593570054 90.996170044 1521.1290283
1521.629 0.0 0.0 0.248823002 90.026672363 1521.6290283
1522.129 0.0 0.0 0.245942995 86.375076294 1522.1290283
1522.629 0.4293945134 0.0 0.2455070019 79.478904724 1522.6290283
1523.129 0.8392013907 2.0 0.2521269917 75.319755554 1523.1290283
1523.629 0.8100501299 2.0 0.2610000074 75.807525635 1523.6290283
1524.129 0.816064477 2.0 0.2476419955 80.953361511 1524.1290283
1524.629 0.8402420282 2.0 0.2271839976 90.76084137 1524.6290283
1525.129 0.8732683659 2.0 0.2301770002 97.11933136 1525.1290283
1525.629 0.7422982454 2.0 0.2406580001 97.439201355 1525.6290283
1526.129 0.6793922186 2.0 0.2321169972 95.75630188 1526.1290283
1526.629 0.7158873081 2.0 0.2175029963 93.359237671 1526.6290283
1527.129 0.6424530149 2.0 0.2251040041 90.273406982 1527.1290283
1527.629 0.6809957027 2.0 0.2397989929 86.506942749 1527.6290283
1528.129 0.7569394112 2.0 0.2486480027 83.491195679 1528.1290283
1528.629 0.8064863682 2.0 0.2556309998 81.683189392 1528.6290283
1529.129 0.8165132999 2.0 0.2615810037 80.336387634 1529.1290283
1529.629 0.8037569523 2.0 0.2672019899 79.212402344 1529.6290283
1530.129 0.7269642353 2.0 0.2671110034 78.28591156 1530.1290283
1530.629 0.7541252971 2.0 0.2651959956 77.548820496 1530.6290283
1531.129 0.8462171555 2.0 0.2611910105 77.908432007 1531.1290283
1531.629 0.7213481665 2.0 0.2565189898 79.654434204 1531.6290283
1532.129 0.7063952684 2.0 0.2494920045 82.109657288 1532.1290283
1532.629 0.763158977 2.0 0.2417140007 85.057876587 1532.6290283
1533.129 0.7476648092 2.0 0.2461680025 88.541397095 1533.1290283
1533.629 0.7063461542 2.0 0.2545270026 92.573745728 1533.6290283
1534.129 0.6907762885 2.0 0.2661820054 92.706634521 1534.1290283
1534.629 0.7730082273 2.0 0.2788890004 87.519775391 1534.6290283
1535.129 0.836945653 2.0 0.2712669969 80.937217712 1535.1290283
1535.629 0.8536480665 2.0 0.2571539879 74.211860657 1535.6290283
1536.129 0.7987094522 2.0 0.2602129877 69.055145264 1536.1290283
1536.629 0.7957292795 2.0 0.2687549889 66.013549805 1536.6290283
1537.129 0.8700476885 2.0 0.270532012 65.364135742 1537.1290283
1537.629 0.812740922 2.0 0.2701500058 67.195396423 1537.6290283
1538.129 0.8616636992 2.0 0.2689070106 70.25881958 1538.1290283
1538.629 0.964666605 2.0 0.2673879862 74.155769348 1538.6290283
1539.129 0.923687458 2.0 0.2665280104 78.571792603 1539.1290283
1539.629 0.4590208828 0.0 0.2658790052 83.406455994 1539.6290283
1540.129 0.0 0.0 0.2635020018 86.221710205 1540.1290283
1540.629 0.0 0.0 0.260574013 86.239112854 1540.6290283
1541.129 0.0 0.0 0.2434689999 84.986068726 1541.1290283
1541.629 0.0 0.0 0.2218379974 82.950256348 1541.6290283
1542.129 0.0 0.0 0.2325470001 81.365020752 1542.1290283
1542.629 0.0 0.0 0.2535820007 80.624145508 1542.6290283
1543.129 0.0 0.0 0.2447299957 79.560142517 1543.1290283
1543.629 0.0 0.0 0.2263340056 77.800262451 1543.6290283
1544.129 0.0 0.0 0.2328120023 76.190826416 1544.1290283
1544.629 0.0 0.0 0.247232005 75.002067566 1544.6290283
1545.129 0.0 0.0 0.2472880036 76.78515625 1545.1290283
1545.629 0.0 0.0 0.2427569926 82.354660034 1545.6290283
1546.129 0.0 0.0 0.2437729985 86.284805298 1546.1290283
1546.629 0.0 0.0 0.2465600073 86.843200684 1546.6290283
1547.129 0.0 0.0 0.2330770046 85.263038635 1547.1290283
1547.629 0.0 0.0 0.214398995 81.938041687 1547.6290283
1548.129 0.0 0.0 0.228945002 79.117103577 1548.1290283
1548.629 0.0 0.0 0.2540979981 77.518249512 1548.6290283
1549.129 0.0 0.0 0.2591030002 75.644775391 1549.1290283
1549.629 0.0 0.0 0.2576760054 73.018806458 1549.6290283
1550.129 0.0 0.0 0.2785710096 69.979316711 1550.1290283
1550.629 0.0 0.0 0.3065919876 66.634513855 1550.6290283
1551.129 0.0 0.0 0.3035739958 65.481483459 1551.1290283
1551.629 0.0 0.0 0.2906459868 67.317504883 1551.6290283
1552.129 0.0 0.0 0.2698929906 69.829170227 1552.1290283
1552.629 0.0 0.0 0.2466419935 72.277832031 1552.6290283
1553.129 0.0 0.0 0.2537670135 74.679473877 1553.1290283
1553.629 0.0 0.0 0.2705900073 77.039199829 1553.6290283
1554.129 0.0 0.0 0.2535960078 79.818054199 1554.1290283
1554.629 0.0 0.0 0.2258030027 83.163238525 1554.6290283
1555.129 0.0 0.0 0.2192710042 85.634315491 1555.1290283
1555.629 0.0 0.0 0.2195270061 86.771347046 1555.6290283
1556.129 0.0 0.0 0.2285439968 86.554359436 1556.1290283
1556.629 0.0 0.0 0.240357995 84.976982117 1556.6290283
1557.129 0.0 0.0 0.2589249909 83.008964539 1557.1290283
1557.629 0.0 0.0 0.2796489894 80.959938049 1557.6290283
1558.129 0.0 0.0 0.2653630078 80.5522995 1558.1290283
1558.629 0.0 0.0 0.2398989946 82.335990906 1558.6290283
1559.129 0.0 0.0 0.2386000007 86.705421448 1559.1290283
1559.629 0.0 0.0 0.2450159937 93.786529541 1559.6290283
1560.129 0.0 0.0 0.236631006 101.03632355 1560.1290283
1560.629 0.0 0.0 0.2235199958 107.64285278 1560.6290283
1561.129 0.0 0.0 0.2216739953 110.93250275 1561.1290283
1561.629 0.0 0.0 0.2234250009 110.05161285 1561.6290283
1562.129 0.0 0.0 0.2343990058 103.46317291 1562.1290283
1562.629 0.0 0.0 0.2483180016 90.67640686 1562.6290283
1563.129 0.0 0.0 0.2548809946 82.472366333 1563.1290283
1563.629 0.0 0.0 0.2590950131 82.293304443 1563.6290283
1564.129 0.0 0.0 0.2440720052 83.27545166 1564.1290283
1564.629 0.0 0.0 0.2229070067 83.227279663 1564.6290283
1565.129 0.3614201844 2.0 0.2201869935 79.886169434 1565.1290283
1565.629 0.7476139069 2.0 0.2233559936 72.529716492 1565.6290283
1566.129 0.8418195844 2.0 0.2506299913 67.101524353 1566.1290283
1566.629 0.9053295851 2.0 0.2856000066 65.499351501 1566.6290283
1567.129 0.9011034966 2.0 0.2787129879 65.47328949 1567.1290283
1567.629 0.8451231718 2.0 0.2584620118 66.304969788 1567.6290283
1568.129 0.7849526405 2.0 0.2483250052 67.445236206 1568.1290283
1568.629 0.7453294396 2.0 0.2414170057 68.718780518 1568.6290283
1569.129 0.7183715105 2.0 0.2513659894 68.432579041 1569.1290283
1569.629 0.8642714024 2.0 0.2666969895 66.046081543 1569.6290283
