~Version information
VERS. 2.0:
WRAP. NO:
~Well
STRT.m 1499.8790000 :  
STOP.m 2416.3790000 :  
STEP.m 0.00000000 :  
NULL.  -999.250000 :  
COMP.    : COMPANY
WELL.  A10 : WELL
FLD.    : FIELD
LOC.    : LOCATION
SRVC.    : SERVICE COMPANY
DATE.  Monday, January 26 2009 14:04:02 : DATE
PROV.    : PROVINCE
UWI.    : UNIQUE WELL ID
API.    : API NUMBER
~Curve
DEPT.m   : DEPTH
NetGross.    : NetGross
Facies.    : Facies
Porosity.m3/m3   : Porosity
Gamma.gAPI   : Gamma
DEPTH.m   : trend
~Parameter

~Ascii
# ...
2297.629 0.0 0.0 0.1682579964 65.735244751 2297.6289063
2298.129 0.0 0.0 0.1771440059 67.920959473 2298.1289063
2298.629 0.0 0.0 0.1919 69.4633255 2298.6289063
2299.129 0.0 0.0 0.1733040065 70.88269043 2299.1289063
2299.629 0.0 0.0 0.1440590024 72.345207214 2299.6289063
2300.129 0.0 0.0 0.143640995 73.708221436 2300.1289063
2300.629 0.0 0.0 0.1524280012 74.926193237 2300.6289063
2301.129 0.0 0.0 0.1589969993 75.768951416 2301.1289063
2301.629 0.0 0.0 0.1648579985 76.163032532 2301.6289063
2302.129 0.0 0.0 0.1633740067 75.417915344 2302.1289063
2302.629 0.0 0.0 0.1595460027 73.313163757 2302.6289063
2303.129 0.0 0.0 0.1466519982 71.450050354 2303.1289063
2303.629 0.0 0.0 0.1308649927 70.339851379 2303.6289063
2304.129 0.0 0.0 0.1520349979 72.924537659 2304.1289063
2304.629 0.0 0.0 0.1850059927 80.143455505 2304.6289063
2305.129 0.0 0.0 0.176541999 86.340461731 2305.1289063
2305.629 0.0 0.0 0.1548479944 89.709617615 2305.6289063
2306.129 0.0 0.0 0.1522919983 91.137054443 2306.1289063
2306.629 0.0 0.0 0.1558469981 90.905677795 2306.6289063
2307.129 0.0 0.0 0.1589439958 88.821655273 2307.1289063
2307.629 0.0 0.0 0.1618960053 84.823097229 2307.6289063
2308.129 0.0 0.0 0.1588310003 82.240913391 2308.1289063
2308.629 0.0 0.0 0.1538449973 82.138633728 2308.6289063
2309.129 0.0 0.0 0.1482460052 83.23323822 2309.1289063
2309.629 0.0 0.0 0.1424510032 85.115112305 2309.6289063
2310.129 0.0 0.0 0.1316490024 83.618560791 2310.1289063
2310.629 0.0 0.0 0.1192469969 77.413520813 2310.6289063
2311.129 0.0 0.0 0.1223789975 73.419021606 2311.1289063
2311.629 0.0 0.0 0.130471006 73.844230652 2311.6289063
2312.129 0.0 0.0 0.1360870004 77.320655823 2312.1289063
2312.629 0.0 0.0 0.1409119964 83.411361694 2312.6289063
2313.129 0.0 0.0 0.1400659978 85.495109558 2313.1289063
2313.629 0.0 0.0 0.1374090016 81.457824707 2313.6289063
2314.129 0.0 0.0 0.138101995 77.66620636 2314.1289063
2314.629 0.0 0.0 0.1398639977 76.153083801 2314.6289063
2315.129 0.0 0.0 0.1572110057 76.659103394 2315.1289063
2315.629 0.0 0.0 0.1795350015 79.101478577 2315.6289063
2316.129 0.0 0.0 0.1578149945 82.868515015 2316.1289063
2316.629 0.0 0.0 0.122033 87.764892578 2316.6289063
2317.129 0.0 0.0 0.1195370033 93.021850586 2317.1289063
2317.629 0.0 0.0 0.1276679933 98.393928528 2317.6289063
2318.129 0.0 0.0 0.1256799996 103.88284302 2318.1289063
2318.629 0.0 0.0 0.120461002 109.48914337 2318.6289063
2319.129 0.0 0.0 0.1413969994 107.73387146 2319.1289063
2319.629 0.0895920694 0.0 0.1706829965 96.229095459 2319.6289063
2320.129 0.5004346967 1.0 0.1736019999 84.929275513 2320.1289063
2320.629 0.6367174387 1.0 0.1681009978 77.012756348 2320.6289063
2321.129 0.2490518689 1.0 0.1605650038 73.356788635 2321.1289063
2321.629 0.4458927214 1.0 0.1523790061 74.241455078 2321.6289063
2322.129 0.4227156937 0.0 0.162135005 75.547393799 2322.1289063
2322.629 0.0 0.0 0.1776199937 75.959335327 2322.6289063
2323.129 0.0 0.0 0.1606509984 76.60080719 2323.1289063
2323.629 0.0 0.0 0.1333190054 77.830543518 2323.6289063
2324.129 0.0 0.0 0.1313620061 79.958084106 2324.1289063
2324.629 0.0 0.0 0.1375080049 83.082267761 2324.6289063
2325.129 0.0 0.0 0.142640993 85.634674072 2325.1289063
2325.629 0.0 0.0 0.14745 87.114532471 2325.6289063
2326.129 0.0 0.0 0.1415040046 87.893371582 2326.1289063
2326.629 0.0 0.0 0.1321250051 88.08984375 2326.6289063
2327.129 0.0 0.0 0.1508170068 87.543106079 2327.1289063
2327.629 0.0 0.0 0.1784719974 86.201820374 2327.6289063
2328.129 0.0 0.0 0.1849080026 84.658111572 2328.1289063
2328.629 0.0 0.0 0.1845680028 83.101028442 2328.6289063
2329.129 0.0 0.0 0.1657709926 82.69972229 2329.1289063
2329.629 0.0 0.0 0.141080007 83.827507019 2329.6289063
2330.129 0.0 0.0 0.1331669986 87.993736267 2330.1289063
2330.629 0.0 0.0 0.1306110024 95.680328369 2330.6289063
2331.129 0.0 0.0 0.1279049963 99.069595337 2331.1289063
2331.629 0.0 0.0 0.1251499951 95.66544342 2331.6289063
2332.129 0.0 0.0 0.1217150018 89.321113586 2332.1289063
2332.629 0.0 0.0 0.1180640012 81.266914368 2332.6289063
2333.129 0.0 0.0 0.1333580017 73.274383545 2333.1289063
2333.629 0.0 0.0 0.1547019929 65.909172058 2333.6289063
2334.129 0.0 0.0 0.1506469995 63.224506378 2334.1289063
2334.629 0.0 0.0 0.1384840012 66.514541626 2334.6289063
2335.129 0.0 0.0 0.134533003 72.088157654 2335.1289063
2335.629 0.0 0.0 0.1332039982 78.766807556 2335.6289063
2336.129 0.0 0.0 0.1416189969 82.550819397 2336.1289063
2336.629 0.0 0.0 0.1531450003 82.163139343 2336.6289063
2337.129 0.0 0.0 0.1455669999 81.064056396 2337.1289063
2337.629 0.0 0.0 0.1318909973 80.358390808 2337.6289063
2338.129 0.0 0.0 0.1317889988 79.85345459 2338.1289063
2338.629 0.0 0.0 0.1360210031 79.487709045 2338.6289063
2339.129 0.0 0.0 0.1414660066 78.981773376 2339.1289063
2339.629 0.0 0.0 0.1472979933 78.246459961 2339.6289063
2340.129 0.0 0.0 0.1447490007 78.544273376 2340.1289063
2340.629 0.0 0.0 0.1395239979 80.278320313 2340.6289063
2341.129 0.0 0.0 0.1270390004 82.786155701 2341.1289063
2341.629 0.0 0.0 0.1122360006 85.856254578 2341.6289063
2342.129 0.0 0.0 0.1154059991 87.473632813 2342.1289063
2342.629 0.0 0.0 0.1243159994 86.994911194 2342.6289063
2343.129 0.0 0.0 0.1349049956 85.714263916 2343.1289063
2343.629 0.0 0.0 0.1460310072 84.044906616 2343.6289063
2344.129 0.0 0.0 0.1650660038 82.015571594 2344.1289063
2344.629 0.0 0.0 0.1866250038 79.635429382 2344.6289063
2345.129 0.0 0.0 0.1707569957 76.300872803 2345.1289063
2345.629 0.0 0.0 0.1429380029 71.81917572 2345.6289063
2346.129 0.0 0.0 0.1470530033 70.250099182 2346.1289063
2346.629 0.0 0.0 0.161364004 72.889900208 2346.6289063
2347.129 0.0 0.0 0.1538330019 79.200782776 2347.1289063
2347.629 0.0 0.0 0.1393280029 89.011024475 2347.6289063
2348.129 0.0 0.0 0.1410699934 94.712127686 2348.1289063
2348.629 0.0 0.0 0.1480010003 93.874778748 2348.6289063
2349.129 0.0 0.0 0.1511439979 92.6146698 2349.1289063
2349.629 0.0 0.0 0.1530790031 92.884475708 2349.6289063
2350.129 0.0 0.0 0.1585710049 94.726196289 2350.1289063
2350.629 0.0 0.0 0.1651979983 98.153236389 2350.6289063
2351.129 0.0 0.0 0.1680489928 98.129890442 2351.1289063
2351.629 0.0 0.0 0.1696940064 93.048294067 2351.6289063
2352.129 0.0 0.0 0.1835149974 87.477607727 2352.1289063
2352.629 0.0 0.0 0.2012239993 82.876701355 2352.6289063
2353.129 0.0 0.0 0.1881670058 79.596809387 2353.1289063
2353.629 0.0 0.0 0.1652870029 77.750076294 2353.6289063
2354.129 0.0 0.0 0.1690209955 77.083114624 2354.1289063
2354.629 0.0 0.0 0.1812510043 77.515022278 2354.6289063
2355.129 0.0 0.0 0.1663590074 77.552772522 2355.1289063
2355.629 0.0 0.0 0.1428070068 76.719673157 2355.6289063
2356.129 0.0 0.0 0.1433160007 74.552993774 2356.1289063
2356.629 0.0 0.0 0.1515070051 70.905006409 2356.6289063
2357.129 0.0 0.0 0.1424690038 68.446456909 2357.1289063
2357.629 0.0 0.0 0.1279300004 68.030105591 2357.6289063
2358.129 0.0 0.0 0.1424240023 68.677764893 2358.1289063
2358.629 0.0 0.0 0.166189 70.077125549 2358.6289063
2359.129 0.0 0.0 0.1700650007 72.298919678 2359.1289063
2359.629 0.0 0.0 0.1675900072 75.365745544 2359.6289063
2360.129 0.0 0.0 0.1515270025 79.196586609 2360.1289063
2360.629 0.0 0.0 0.1311260015 83.765571594 2360.6289063
2361.129 0.0 0.0 0.122709997 88.195747375 2361.1289063
2361.629 0.0 0.0 0.1181209981 92.207122803 2361.6289063
2362.129 0.0 0.0 0.1114820018 95.092681885 2362.1289063
2362.629 0.0 0.0 0.1041880026 96.626701355 2362.6289063
2363.129 0.0 0.0 0.1073620021 97.216003418 2363.1289063
2363.629 0.0 0.0 0.1138779968 96.990486145 2363.6289063
2364.129 0.0 0.0 0.1292870045 95.86113739 2364.1289063
2364.629 0.0 0.0 0.1475349963 93.7995224 2364.6289063
2365.129 0.0 0.0 0.1557780057 89.94115448 2365.1289063
2365.629 0.0 0.0 0.160826996 84.010017395 2365.6289063
2366.129 0.0 0.0 0.156607002 78.501457214 2366.1289063
2366.629 0.0 0.0 0.1494269967 74.21219635 2366.6289063
2367.129 0.0 0.0 0.145472005 71.365585327 2367.1289063
2367.629 0.0 0.0 0.1425479949 70.032913208 2367.6289063
2368.129 0.0 0.0 0.1516669989 72.207397461 2368.1289063
2368.629 0.0 0.0 0.1646309942 78.525436401 2368.6289063
