~Version information
VERS. 2.0:
WRAP. NO:
~Well
STRT.m 1499.8790000 :  
STOP.m 2416.3790000 :  
STEP.m 0.00000000 :  
NULL.  -999.250000 :  
COMP.    : COMPANY
WELL.  A10 : WELL
FLD.    : FIELD
LOC.    : LOCATION
SRVC.    : SERVICE COMPANY
DATE.  Monday, January 26 2009 14:04:02 : DATE
PROV.    : PROVINCE
UWI.    : UNIQUE WELL ID
API.    : API NUMBER
~Curve
DEPT.m   : DEPTH
NetGross.    : NetGross
Facies.    : Facies
Porosity.m3/m3   : Porosity
Gamma.gAPI   : Gamma
DEPTH.m   : trend
~Parameter

~Ascii
# ...
2226.129 0.0 0.0 0.1244089976 90.624908447 2226.1289063
2226.629 0.0 0.0 0.1034990028 88.386756897 2226.6289063
2227.129 0.0 0.0 0.1168600023 86.537727356 2227.1289063
2227.629 0.0 0.0 0.1411640048 85.365135193 2227.6289063
2228.129 0.0 0.0 0.1412940025 85.129249573 2228.1289063
2228.629 0.0 0.0 0.1337060034 85.913154602 2228.6289063
2229.129 0.0 0.0 0.1429609954 84.83177948 2229.1289063
2229.629 0.0 0.0 0.1575939953 80.963928223 2229.6289063
2230.129 0.0 0.0 0.1495179981 77.689949036 2230.1289063
2230.629 0.0 0.0 0.1341910064 76.089149475 2230.6289063
2231.129 0.0 0.0 0.1241270006 77.588035583 2231.1289063
2231.629 0.0 0.0 0.1157450005 82.642097473 2231.6289063
2232.129 0.0 0.0 0.1215249971 83.784568787 2232.1289063
2232.629 0.0 0.0 0.1318269968 78.631370544 2232.6289063
2233.129 0.0 0.0 0.1430729926 72.754165649 2233.1289063
2233.629 0.0 0.0 0.1546200067 67.931907654 2233.6289063
2234.129 0.0 0.0 0.1543239951 67.083595276 2234.1289063
2234.629 0.0 0.0 0.1502469927 71.14125061 2234.6289063
2235.129 0.0 0.0 0.1583160013 75.744491577 2235.1289063
2235.629 0.0 0.0 0.1702630073 79.501098633 2235.6289063
2236.129 0.0 0.0 0.1647790074 82.371963501 2236.1289063
2236.629 0.0 0.0 0.153730005 84.344589233 2236.6289063
2237.129 0.0 0.0 0.1381459981 84.696487427 2237.1289063
2237.629 0.0 0.0 0.1211140007 83.196968079 2237.6289063
2238.129 0.0 0.0 0.1231980026 81.870620728 2238.1289063
2238.629 0.0 0.0 0.1313859969 81.363853455 2238.6289063
2239.129 0.0 0.0 0.1442469954 80.876243591 2239.1289063
2239.629 0.0 0.0 0.1585990041 80.152236938 2239.6289063
2240.129 0.0 0.0 0.1612010002 77.967826843 2240.1289063
2240.629 0.0 0.0 0.1600529999 73.9322052 2240.6289063
2241.129 0.0 0.0 0.1665679961 70.412971497 2241.1289063
2241.629 0.0 0.0 0.1755300015 68.166061401 2241.6289063
2242.129 0.0 0.0 0.1853490025 67.033668518 2242.1289063
2242.629 0.0 0.0 0.1954409927 66.965393066 2242.6289063
2243.129 0.0 0.0 0.1754010022 69.011131287 2243.1289063
2243.629 0.0 0.0 0.1457400024 73.506111145 2243.6289063
2244.129 0.0 0.0 0.1309700012 77.52633667 2244.1289063
2244.629 0.0 0.0 0.1209549978 80.138221741 2244.6289063
2245.129 0.0 0.0 0.1316570044 81.569381714 2245.1289063
2245.629 0.0 0.0 0.1489740014 81.89250946 2245.6289063
2246.129 0.0 0.0 0.1635310054 80.104568481 2246.1289063
2246.629 0.0 0.0 0.1772069931 75.885299683 2246.6289063
2247.129 0.0 0.0 0.1770640016 73.158218384 2247.1289063
2247.629 0.0 0.0 0.1725089997 73.176063538 2247.6289063
2248.129 0.0 0.0 0.1648519933 75.117988586 2248.1289063
2248.629 0.0 0.0 0.1562030017 78.721878052 2248.6289063
2249.129 0.0 0.0 0.1594260037 81.096641541 2249.1289063
2249.629 0.0 0.0 0.1664389968 81.31917572 2249.6289063
2250.129 0.0 0.0 0.1590619981 81.345573425 2250.1289063
2250.629 0.0 0.0 0.1470900029 81.80040741 2250.6289063
2251.129 0.0 0.0 0.1433610022 82.559684753 2251.1289063
2251.629 0.0 0.0 0.1422639936 83.583824158 2251.6289063
2252.129 0.0 0.0 0.1538999975 82.405250549 2252.1289063
2252.629 0.0 0.0 0.1696020067 78.236091614 2252.6289063
2253.129 0.0 0.0 0.165564999 75.35269165 2253.1289063
2253.629 0.0 0.0 0.1552260071 75.120445251 2253.6289063
2254.129 0.0 0.0 0.1594980061 77.512138367 2254.1289063
2254.629 0.0 0.0 0.1684360057 82.519058228 2254.6289063
2255.129 0.0 0.0 0.1753199995 82.476234436 2255.1289063
2255.629 0.0 0.0 0.1815489978 74.936317444 2255.6289063
2256.129 0.0 0.0 0.1816450059 68.373901367 2256.1289063
2256.629 0.0 0.0 0.1797839999 65.494842529 2256.6289063
2257.129 0.0 0.0 0.1716829985 66.994354248 2257.1289063
2257.629 0.0 0.0 0.1615889966 73.094436646 2257.6289063
2258.129 0.0 0.0 0.1603920013 78.347465515 2258.1289063
2258.629 0.0 0.0 0.1620360017 81.014068604 2258.6289063
2259.129 0.0 0.0 0.1602859944 81.796798706 2259.1289063
2259.629 0.0 0.0 0.1574510038 80.919967651 2259.6289063
2260.129 0.0 0.0 0.162608996 78.021461487 2260.1289063
2260.629 0.0 0.0 0.1703190058 72.985656738 2260.6289063
2261.129 0.0 0.0 0.1547420025 72.984535217 2261.1289063
2261.629 0.0 0.0 0.1317290068 80.308036804 2261.6289063
2262.129 0.0 0.0 0.1330910027 87.140945435 2262.1289063
2262.629 0.0 0.0 0.1422339976 90.987983704 2262.6289063
2263.129 0.0 0.0 0.1468819976 88.767608643 2263.1289063
2263.629 0.0 0.0 0.1500940025 79.495933533 2263.6289063
2264.129 0.0 0.0 0.1519889981 74.333869934 2264.1289063
2264.629 0.0 0.0 0.1534650028 76.844970703 2264.6289063
2265.129 0.0 0.0 0.1461499929 80.804336548 2265.1289063
2265.629 0.0 0.0 0.1360280067 84.224433899 2265.6289063
2266.129 0.0 0.0 0.1441089958 84.06993866 2266.1289063
2266.629 0.0 0.0 0.1580030024 79.37171936 2266.6289063
2267.129 0.0 0.0 0.1587260067 75.54990387 2267.1289063
2267.629 0.0 0.0 0.1552439928 74.335090637 2267.6289063
2268.129 0.0 0.0 0.1573839933 74.693473816 2268.1289063
2268.629 0.0 0.0 0.1613200009 76.29499054 2268.6289063
2269.129 0.0 0.0 0.1513790041 79.338630676 2269.1289063
2269.629 0.0 0.0 0.1370069981 83.887916565 2269.6289063
2270.129 0.0 0.0 0.1558630019 86.773147583 2270.1289063
2270.629 0.0 0.0 0.1853269935 86.982269287 2270.6289063
2271.129 0.0 0.0 0.1777669936 85.535400391 2271.1289063
2271.629 0.0 0.0 0.1583849937 82.758247375 2271.6289063
2272.129 0.0 0.0 0.1538760066 78.592376709 2272.1289063
2272.629 0.0 0.0 0.1541160047 73.019119263 2272.6289063
2273.129 0.0 0.0 0.1483950019 70.627464294 2273.1289063
2273.629 0.0 0.0 0.1407700032 72.882606506 2273.6289063
2274.129 0.0 0.0 0.1365370005 76.993301392 2274.1289063
2274.629 0.0 0.0 0.1333869994 82.068367004 2274.6289063
2275.129 0.0 0.0 0.129501 83.190185547 2275.1289063
2275.629 0.0 0.0 0.1253789961 78.788619995 2275.6289063
2276.129 0.0 0.0 0.1283150017 75.581306458 2276.1289063
2276.629 0.0 0.0 0.1335050017 75.713119507 2276.6289063
2277.129 0.0 0.0 0.1429699957 77.747817993 2277.1289063
2277.629 0.0 0.0 0.1537989974 81.226844788 2277.6289063
2278.129 0.0 0.0 0.1556569934 82.759681702 2278.1289063
2278.629 0.0 0.0 0.1546500027 81.263786316 2278.6289063
2279.129 0.0 0.0 0.1638060063 80.411087036 2279.1289063
2279.629 0.0 0.0 0.1762080044 81.373977661 2279.6289063
2280.129 0.0 0.0 0.1688529998 83.427284241 2280.1289063
2280.629 0.0 0.0 0.1551910043 86.339492798 2280.6289063
2281.129 0.0 0.0 0.142535001 85.738487244 2281.1289063
2281.629 0.0 0.0 0.1301999986 80.228317261 2281.6289063
2282.129 0.0 0.0 0.1377270073 75.408683777 2282.1289063
2282.629 0.0 0.0 0.1515949965 73.067504883 2282.6289063
2283.129 0.0 0.0 0.154636994 72.930854797 2283.1289063
2283.629 0.0 0.0 0.1542219967 74.911254883 2283.6289063
2284.129 0.0 0.0 0.1484729946 79.52469635 2284.1289063
2284.629 0.0 0.0 0.14102 86.935928345 2284.6289063
2285.129 0.0 0.0 0.1481000036 91.88584137 2285.1289063
2285.629 0.0 0.0 0.1598200053 92.695236206 2285.6289063
2286.129 0.0 0.0 0.1695279926 89.351661682 2286.1289063
2286.629 0.0 0.0 0.1785939932 81.851127625 2286.6289063
2287.129 0.0296743009 0.0 0.1748220026 76.41582489 2287.1289063
2287.629 0.1465086639 1.0 0.1669519991 75.032424927 2287.6289063
2288.129 0.3643480837 1.0 0.1619379967 76.056045532 2288.1289063
2288.629 0.5304236412 1.0 0.1578360051 78.961486816 2288.6289063
2289.129 0.6575245857 1.0 0.1567409933 83.962150574 2289.1289063
2289.629 0.7374002934 1.0 0.156607002 91.126167297 2289.6289063
2290.129 0.6867598295 1.0 0.1539189965 94.461784363 2290.1289063
2290.629 0.3239741623 1.0 0.1504140049 92.055877686 2290.6289063
2291.129 0.0 0.0 0.151530996 88.753547668 2291.1289063
2291.629 0.0 0.0 0.1541240066 86.101791382 2291.6289063
2292.129 0.0 0.0 0.1542519927 84.842506409 2292.1289063
2292.629 0.0 0.0 0.1535930037 85.212593079 2292.6289063
2293.129 0.0 0.0 0.1624770015 84.746902466 2293.1289063
2293.629 0.0 0.0 0.1744080037 82.658355713 2293.6289063
2294.129 0.0 0.0 0.1724070013 79.516044617 2294.1289063
2294.629 0.0 0.0 0.1659570038 75.501701355 2294.6289063
2295.129 0.0 0.0 0.1757439971 70.383712769 2295.1289063
2295.629 0.0 0.0 0.190715 64.088127136 2295.6289063
2296.129 0.0 0.0 0.1907790005 60.601654053 2296.1289063
2296.629 0.0 0.0 0.1860830039 61.197212219 2296.6289063
2297.129 0.0 0.0 0.1777510047 63.193752289 2297.1289063
