~Version information
VERS. 2.0:
WRAP. NO:
~Well
STRT.m 1499.8790000 :  
STOP.m 2416.3790000 :  
STEP.m 0.00000000 :  
NULL.  -999.250000 :  
COMP.    : COMPANY
WELL.  A10 : WELL
FLD.    : FIELD
LOC.    : LOCATION
SRVC.    : SERVICE COMPANY
DATE.  Monday, January 26 2009 14:04:02 : DATE
PROV.    : PROVINCE
UWI.    : UNIQUE WELL ID
API.    : API NUMBER
~Curve
DEPT.m   : DEPTH
NetGross.    : NetGross
Facies.    : Facies
Porosity.m3/m3   : Porosity
Gamma.gAPI   : Gamma
DEPTH.m   : trend
~Parameter

~Ascii
# ...
1695.129 0.5763969421 3.0 0.2486079931 81.877235413 1695.1290283
1695.629 0.5289393663 3.0 0.2512989938 83.666938782 1695.6290283
1696.129 0.5769991279 3.0 0.2507120073 81.768600464 1696.1290283
1696.629 0.7224991322 3.0 0.2490780056 75.435417175 1696.6290283
1697.129 0.6807028651 3.0 0.2503199875 72.189537048 1697.1290283
1697.629 0.5496563315 3.0 0.252478987 74.432693481 1697.6290283
1698.129 0.2832781971 0.0 0.2517560124 78.766784668 1698.1290283
1698.629 0.0 0.0 0.2501130104 84.10684967 1698.6290283
1699.129 0.0 0.0 0.2443010062 88.00769043 1699.1290283
1699.629 0.0 0.0 0.2371580005 89.688575745 1699.6290283
1700.129 0.0 0.0 0.235146001 90.065933228 1700.1290283
1700.629 0.0 0.0 0.2347719967 89.432380676 1700.6290283
1701.129 0.0 0.0 0.2504749894 87.614990234 1701.1290283
1701.629 0.0 0.0 0.2713100016 84.558540344 1701.6290283
1702.129 0.0 0.0 0.2897109985 78.519714355 1702.1290283
1702.629 0.0 0.0 0.3073329926 68.94190979 1702.6290283
1703.129 0.0 0.0 0.2885150015 66.056808472 1703.1290283
1703.629 0.0 0.0 0.2580609918 73.13129425 1703.6290283
1704.129 0.0 0.0 0.2402359992 84.570480347 1704.1290283
1704.629 0.0 0.0 0.2264429927 98.587966919 1704.6290283
1705.129 0.0 0.0 0.2389470041 102.39402771 1705.1290283
1705.629 0.0 0.0 0.2598469853 91.905029297 1705.6290283
1706.129 0.0 0.0 0.2534680068 83.155769348 1706.1290283
1706.629 0.0 0.0 0.2383790016 81.265975952 1706.6290283
1707.129 0.0 0.0 0.2416969985 83.622505188 1707.1290283
1707.629 0.0 0.0 0.2508929968 89.391021729 1707.6290283
1708.129 0.0 0.0 0.2491900027 90.157157898 1708.1290283
1708.629 0.0 0.0 0.244005993 83.234306335 1708.6290283
1709.129 0.0 0.0 0.2549250126 78.420814514 1709.1290283
1709.629 0.1485637575 1.0 0.270983994 78.845214844 1709.6290283
1710.129 0.4830695987 1.0 0.2592310011 83.177093506 1710.1290283
1710.629 0.7202833295 1.0 0.238598004 90.991691589 1710.6290283
1711.129 0.8206504583 1.0 0.2275280058 92.761253357 1711.1290283
1711.629 0.4348729551 1.0 0.2195120007 85.443687439 1711.6290283
1712.129 0.1630592793 1.0 0.2344470024 79.056388855 1712.1290283
1712.629 0.3592820168 1.0 0.2567090094 76.797805786 1712.6290283
1713.129 0.3956232071 1.0 0.2550379932 78.391441345 1713.1290283
1713.629 0.5847750306 1.0 0.2457239926 83.749015808 1713.6290283
1714.129 0.5641162992 1.0 0.2494930029 88.035400391 1714.1290283
1714.629 0.5000081062 1.0 0.2574389875 89.70677948 1714.6290283
1715.129 0.6599209905 1.0 0.2402539998 91.252815247 1715.1290283
1715.629 0.5238990188 1.0 0.2150440067 93.468429565 1715.6290283
1716.129 0.4328567088 1.0 0.2165900022 96.408752441 1716.1290283
1716.629 0.7190159559 1.0 0.2266789973 100.09140015 1716.6290283
1717.129 0.5601539612 1.0 0.2302329987 100.25305939 1717.1290283
1717.629 0.3920504749 1.0 0.2317010015 95.532516479 1717.6290283
1718.129 0.627409935 1.0 0.2385060042 90.654388428 1718.1290283
1718.629 0.5526102185 1.0 0.2470149994 87.127189636 1718.6290283
1719.129 0.728500545 1.0 0.2530969977 85.554916382 1719.1290283
1719.629 0.8221568465 1.0 0.258405 86.130439758 1719.6290283
1720.129 0.5592579842 1.0 0.2552559972 87.812652588 1720.1290283
1720.629 0.2463279366 1.0 0.249405995 90.26915741 1720.6290283
1721.129 0.3311462998 1.0 0.2469719946 91.734382629 1721.1290283
1721.629 0.6079439521 1.0 0.2456299961 91.644622803 1721.6290283
1722.129 0.5062932968 1.0 0.2510539889 89.145256042 1722.1290283
1722.629 0.5329859257 1.0 0.2586390078 83.963432312 1722.6290283
1723.129 0.5175461769 1.0 0.2395839989 82.003982544 1723.1290283
1723.629 0.5044728518 1.0 0.2120220065 85.15222168 1723.6290283
1724.129 0.5696870685 1.0 0.2278389931 88.913223267 1724.1290283
1724.629 0.2700432241 1.0 0.2575049996 91.851791382 1724.6290283
1725.129 0.3104791939 1.0 0.2571400106 92.008956909 1725.1290283
1725.629 0.3288176656 1.0 0.2471860051 88.759239197 1725.6290283
1726.129 0.2468596846 1.0 0.2488649935 84.041275024 1726.1290283
1726.629 0.6511551142 1.0 0.2542580068 78.474052429 1726.6290283
1727.129 0.6513894796 1.0 0.2548849881 73.623550415 1727.1290283
1727.629 0.4808645248 1.0 0.2539910078 69.9897995 1727.6290283
1728.129 0.3944862187 1.0 0.2437269986 69.375465393 1728.1290283
1728.629 0.4653505981 1.0 0.2304700017 72.356132507 1728.6290283
1729.129 0.5560715795 1.0 0.2312719971 76.413963318 1729.1290283
1729.629 0.5118770003 3.0 0.2365619987 80.745040894 1729.6290283
1730.129 0.5636602044 3.0 0.2444690019 84.860328674 1730.1290283
1730.629 0.6332894564 3.0 0.2532120049 88.603668213 1730.6290283
1731.129 0.7143963575 3.0 0.2542240024 91.125457764 1731.1290283
1731.629 0.6897287369 3.0 0.2527669966 92.154411316 1731.6290283
1732.129 0.5734300613 3.0 0.2517380118 92.619850159 1732.1290283
1732.629 0.5796945095 3.0 0.2508449852 92.818496704 1732.6290283
1733.129 0.6585565805 3.0 0.258284986 92.343215942 1733.1290283
1733.629 0.5935451388 1.0 0.2683849931 91.06401062 1733.6290283
1734.129 0.30881989 1.0 0.2598749995 87.301307678 1734.1290283
1734.629 0.456250906 1.0 0.245423004 80.518844604 1734.6290283
1735.129 0.9124244452 1.0 0.2648169994 75.604026794 1735.1290283
1735.629 0.7857307196 1.0 0.2950190008 74.117362976 1735.6290283
1736.129 0.7857307196 1.0 0.2811500132 74.525558472 1736.1290283
1736.629 0.8032417893 1.0 0.2532100081 76.339042664 1736.6290283
1737.129 0.8032417893 1.0 0.2532959878 76.911087036 1737.1290283
1737.629 0.6787730455 1.0 0.2623310089 75.396606445 1737.6290283
1738.129 0.3187792301 1.0 0.2763339877 73.671821594 1738.1290283
1738.629 0.2637377679 1.0 0.2919229865 72.3358078 1738.6290283
1739.129 0.3723689318 1.0 0.2715750039 71.519752502 1739.1290283
1739.629 0.3333600163 1.0 0.239752993 71.265556335 1739.6290283
1740.129 0.2061166167 1.0 0.2353920043 73.55431366 1740.1290283
1740.629 0.4447906613 1.0 0.2397989929 79.018562317 1740.6290283
1741.129 0.5376877189 1.0 0.2403510064 84.257766724 1741.1290283
1741.629 0.6667624712 1.0 0.2396740019 88.186157227 1741.6290283
1742.129 0.7655454874 1.0 0.2535220087 90.932342529 1742.1290283
1742.629 0.5974503756 3.0 0.2720069885 92.537391663 1742.6290283
1743.129 0.5228799582 3.0 0.2750760019 91.50138855 1743.1290283
1743.629 0.5324214697 3.0 0.2732230127 87.345405579 1743.6290283
1744.129 0.5767344236 3.0 0.2780329883 82.551109314 1744.1290283
1744.629 0.5411382914 3.0 0.2849709988 77.910888672 1744.6290283
1745.129 0.6344563961 3.0 0.2731640041 73.416099548 1745.1290283
1745.629 0.7105650306 3.0 0.2553719878 69.063987732 1745.6290283
1746.129 0.6846259832 3.0 0.2529200017 67.311851501 1746.1290283
1746.629 0.7018672228 3.0 0.2553659976 68.944297791 1746.6290283
1747.129 0.7055957317 3.0 0.2536360025 71.498054504 1747.1290283
1747.629 0.6209482551 3.0 0.250571996 74.18662262 1747.6290283
1748.129 0.5364049673 3.0 0.2607220113 77.008369446 1748.1290283
1748.629 0.2693808675 0.0 0.2750920057 79.962791443 1748.6290283
1749.129 0.0 0.0 0.2670229971 82.243202209 1749.1290283
1749.629 0.0 0.0 0.2517899871 83.592048645 1749.6290283
1750.129 0.2981918156 3.0 0.2411990017 84.555114746 1750.1290283
1750.629 0.5879298449 3.0 0.2320909947 85.306663513 1750.6290283
1751.129 0.6547693014 3.0 0.2277279943 85.842010498 1751.1290283
1751.629 0.6595308781 3.0 0.2248789966 86.159675598 1751.6290283
1752.129 0.5739517808 3.0 0.2352620065 86.133865356 1752.1290283
1752.629 0.5334599018 3.0 0.2498690039 85.724449158 1752.6290283
1753.129 0.5651233196 3.0 0.2457700074 85.510185242 1753.1290283
1753.629 0.6230210662 3.0 0.235698998 85.675880432 1753.6290283
1754.129 0.6452281475 3.0 0.2335370034 86.467414856 1754.1290283
1754.629 0.5080406666 1.0 0.2338999957 87.9633255 1754.6290283
1755.129 0.5447656512 1.0 0.2413340062 87.256057739 1755.1290283
1755.629 0.502512753 1.0 0.2510260046 83.417259216 1755.6290283
1756.129 0.5071204305 1.0 0.2524589896 79.542709351 1756.1290283
1756.629 0.5986152887 1.0 0.2512539923 76.620826721 1756.6290283
1757.129 0.3044882417 1.0 0.2411500067 76.267814636 1757.1290283
1757.629 0.2478521913 1.0 0.2282059938 78.999687195 1757.6290283
1758.129 0.5045170784 1.0 0.2351599932 79.425361633 1758.1290283
