~Version information
VERS. 2.0:
WRAP. NO:
~Well
STRT.m 1499.8790000 :  
STOP.m 2416.3790000 :  
STEP.m 0.00000000 :  
NULL.  -999.250000 :  
COMP.    : COMPANY
WELL.  A10 : WELL
FLD.    : FIELD
LOC.    : LOCATION
SRVC.    : SERVICE COMPANY
DATE.  Monday, January 26 2009 14:04:02 : DATE
PROV.    : PROVINCE
UWI.    : UNIQUE WELL ID
API.    : API NUMBER
~Curve
DEPT.m   : DEPTH
NetGross.    : NetGross
Facies.    : Facies
Porosity.m3/m3   : Porosity
Gamma.gAPI   : Gamma
DEPTH.m   : trend
~Parameter

~Ascii
# ...
2020.129 0.7423921227 2.21612903226 0.2576900125 65.654495239 2028.125
2020.629 0.7797506452 2.21612903226 0.2389899939 70.032478333 2028.125
2021.129 0.8029897809 2.21612903226 0.2229640037 77.572311401 2028.125
2021.629 0.8125354052 2.21612903226 0.2077929974 87.009284973 2028.125
2022.129 0.7880247831 2.21612903226 0.2126400024 90.404449463 2028.125
2022.629 0.7583545446 2.21612903226 0.2238789946 85.222976685 2028.125
2023.129 0.8102247715 2.21612903226 0.2343430072 79.685653687 2028.125
2023.629 0.7640527487 2.21612903226 0.2445590049 76.417297363 2028.125
2024.129 0.8183908463 2.21612903226 0.2609420121 74.799041748 2028.125
2024.629 0.8148159385 2.21612903226 0.279294014 74.633277893 2028.125
2025.129 0.7079318762 2.21612903226 0.2589940131 75.512443542 2028.125
2025.629 0.7607997656 2.21612903226 0.2263530046 77.306411743 2028.125
2026.129 0.7706232071 2.21612903226 0.2466419935 79.026275635 2028.125
2026.629 0.7730067968 2.21612903226 0.2838320136 80.356300354 2028.125
2027.129 0.8256326914 2.21612903226 0.2666150033 81.369483948 2028.125
2027.629 0.7915175557 2.21612903226 0.2320279926 82.089118958 2028.125
2028.129 0.7586117983 2.21612903226 0.2203509957 82.606521606 2028.125
2028.629 0.8544244766 2.21612903226 0.2159900069 82.950843811 2028.125
2029.129 0.8402653933 2.21612903226 0.2324849963 81.483406067 2028.125
2029.629 0.7953321338 2.21612903226 0.2556400001 77.681007385 2028.125
2030.129 0.7170131207 2.21612903226 0.2635819912 71.803581238 2028.125
2030.629 0.7244514227 2.21612903226 0.2666670084 63.93415451 2028.125
2031.129 0.7597163916 2.21612903226 0.2646459937 62.645370483 2028.125
2031.629 0.5917030573 2.21612903226 0.2609950006 70.674385071 2028.125
2032.129 0.6820627451 2.21612903226 0.2491039932 78.099754333 2028.125
2032.629 0.8377789259 2.21612903226 0.2345820069 81.753677368 2028.125
2033.129 0.8200688958 2.21612903226 0.2399539948 81.438690186 2028.125
2033.629 0.8013370037 2.21612903226 0.2516770065 77.091758728 2028.125
2034.129 0.7478145361 2.21612903226 0.2431470007 74.547035217 2028.125
2034.629 0.7958824039 2.21612903226 0.2281499952 75.667312622 2028.125
2035.129 0.935565114 2.21612903226 0.2352470011 76.744049072 2028.125
2035.629 0.8901420832 2.21612903226 0.2494000047 76.593147278 2028.125
2036.129 0.8660061359 2.21612903226 0.264290005 74.783912659 2028.125
2036.629 0.9691534042 2.21612903226 0.2794150114 71.178825378 2028.125
2037.129 0.9898190498 2.21612903226 0.2817200124 70.115737915 2028.125
2037.629 0.9091106653 2.21612903226 0.279933989 72.979690552 2028.125
2038.129 0.8108680844 2.21612903226 0.2695820034 76.377449036 2028.125
2038.629 0.7944186926 2.21612903226 0.2564949989 79.225593567 2028.125
2039.129 0.8466182947 2.21612903226 0.2580389977 80.821357727 2028.125
2039.629 0.8362393379 2.0 0.2642540038 80.940330505 2039.6290283
2040.129 0.7623236179 2.0 0.2548039854 80.412254333 2040.1290283
2040.629 0.7919751406 2.0 0.2403530031 79.50202179 2040.6290283
2041.129 0.7654854059 2.0 0.2531700134 77.868270874 2041.1290283
2041.629 0.7022066116 2.0 0.274695009 75.402000427 2041.6290283
2042.129 0.6882647872 2.0 0.2798720002 71.594894409 2042.1290283
2042.629 0.760518074 2.0 0.2798289955 66.28465271 2042.6290283
2043.129 0.770701766 2.0 0.2702569962 64.235473633 2043.1290283
2043.629 0.8235512972 2.0 0.236726895 66.96849823 2043.6290283
2044.129 0.925199151 2.0 0.2486509979 70.963409424 2044.1290283
2044.629 0.4479708076 2.0 0.2408159971 75.096176147 2044.6290283
2045.129 0.0 0.0 0.2338880002 77.5210495 2045.1290283
2045.629 0.0 0.0 0.2579779327 77.64868927 2045.6290283
2046.129 0.0 0.0 0.2579779327 78.633750916 2046.1290283
2046.629 0.0 0.0 0.2515267432 81.483482361 2046.6290283
2047.129 0.0 0.0 0.2153570056 84.54133606 2047.1290283
2047.629 0.0 0.0 0.2360430062 87.278381348 2047.6290283
2048.129 0.0 0.0 0.236717999 87.844009399 2048.1289063
2048.629 0.0 0.0 0.2310030013 85.647354126 2048.6289063
2049.129 0.0 0.0 0.2274200022 84.238754272 2049.1289063
2049.629 0.0 0.0 0.2245180011 84.751815796 2049.6289063
2050.129 0.0 0.0 0.2264920026 85.670440674 2050.1289063
2050.629 0.0 0.0 0.2300229967 86.510574341 2050.6289063
2051.129 0.0 0.0 0.2279459983 84.74193573 2051.1289063
2051.629 0.0 0.0 0.224078998 79.556617737 2051.6289063
2052.129 0.0 0.0 0.2268110067 76.892082214 2052.1289063
2052.629 0.4143025875 0.0 0.2316499949 78.644111633 2052.6289063
2053.129 0.4388265014 1.0 0.2414119989 82.528831482 2053.1289063
2053.629 0.2627473474 1.0 0.252745986 87.817062378 2053.6289063
2054.129 0.4579883516 1.0 0.2555609941 90.117607117 2054.1289063
2054.629 0.2303327024 1.0 0.2556569874 88.028396606 2054.6289063
2055.129 0.0416714326 1.0 0.2534750104 86.029449463 2055.1289063
2055.629 0.3643836081 1.0 0.2505669892 85.551200867 2055.6289063
2056.129 0.4499878883 1.0 0.2473589927 86.111633301 2056.1289063
2056.629 0.616707921 1.0 0.2440560013 87.556846619 2056.6289063
2057.129 0.9835984707 1.0 0.2325440049 88.972145081 2057.1289063
2057.629 0.9682014585 1.0 0.2184109986 90.065467834 2057.6289063
2058.129 0.6465799809 1.0 0.2314539999 89.496276855 2058.1289063
2058.629 0.4075906873 1.0 0.2531729937 86.836555481 2058.6289063
2059.129 0.3324954808 1.0 0.2368469983 82.695640564 2059.1289063
2059.629 0.1982132792 1.0 0.2083739936 77.268058777 2059.6289063
2060.129 0.4420083761 1.0 0.2057819963 75.150039673 2060.1289063
2060.629 0.3306768537 1.0 0.2114530057 77.80909729 2060.6289063
2061.129 0.0 0.0 0.2142760009 80.476516724 2061.1289063
2061.629 0.0 0.0 0.2161899954 81.629684448 2061.6289063
2062.129 0.0 0.0 0.2299859971 81.398292542 2062.1289063
2062.629 0.0 0.0 0.2475749999 79.823768616 2062.6289063
2063.129 0.0 0.0 0.2590120137 81.084358215 2063.1289063
2063.629 0.0 0.0 0.2684839964 86.514144897 2063.6289063
2064.129 0.0 0.0 0.2564609945 90.499015808 2064.1289063
2064.629 0.0 0.0 0.2375759929 91.246444702 2064.6289063
2065.129 0.0 0.0 0.2454240024 88.545623779 2065.1289063
2065.629 0.0 0.0 0.2618069947 82.329231262 2065.6289063
2066.129 0.0 0.0 0.2636409998 77.725700378 2066.1289063
2066.629 0.0 0.0 0.2608290017 76.37247467 2066.6289063
2067.129 0.0 0.0 0.2660529912 75.557983398 2067.1289063
2067.629 0.0 0.0 0.2738440037 74.416488647 2067.6289063
2068.129 0.0 0.0 0.2705740035 72.715614319 2068.1289063
2068.629 0.3429343998 0.0 0.2637729943 70.381141663 2068.6289063
2069.129 0.5251204967 1.0 0.2559570074 70.981834412 2069.1289063
2069.629 0.4789613485 1.0 0.2478169948 75.657165527 2069.6289063
2070.129 0.3307272196 1.0 0.2357430011 79.989234924 2070.1289063
2070.629 0.3560498059 1.0 0.2224120051 82.567459106 2070.6289063
2071.129 0.6978860497 1.0 0.2234340012 82.073066711 2071.1289063
2071.629 0.600284338 1.0 0.2290389985 78.084976196 2071.6289063
2072.129 0.5570316911 1.0 0.2411819994 75.912788391 2072.1289063
2072.629 0.7452591062 1.0 0.2554120123 77.251777649 2072.6289063
2073.129 0.6450616717 1.0 0.253899008 79.577941895 2073.1289063
2073.629 0.5381977558 1.0 0.247360006 82.085395813 2073.6289063
2074.129 0.4609986246 1.0 0.2290579975 84.045585632 2074.1289063
2074.629 0.4228557348 1.0 0.2070000023 85.225898743 2074.6289063
2075.129 0.6988446712 1.0 0.2387470007 84.225708008 2075.1289063
2075.629 0.8666220903 2.0 0.287672013 80.597801208 2075.6289063
2076.129 0.7964140177 2.0 0.2857039869 77.230308533 2076.1289063
2076.629 0.8247420788 2.0 0.267486006 75.04536438 2076.6289063
2077.129 0.8840526342 2.0 0.2634420097 76.526428223 2077.1289063
2077.629 0.7810480595 2.0 0.2639229894 82.466430664 2077.6289063
2078.129 0.7541871071 2.0 0.252914995 86.046318054 2078.1289063
2078.629 0.8477650881 2.0 0.2382390052 85.088867188 2078.6289063
2079.129 0.7885929346 2.0 0.2385219932 83.07208252 2079.1289063
2079.629 0.8076451421 2.0 0.2435819954 81.106460571 2079.6289063
2080.129 0.8256533146 2.0 0.2339420021 82.672134399 2080.1289063
2080.629 0.7680339813 2.0 0.2196090072 88.880271912 2080.6289063
2081.129 0.8062541485 2.0 0.217426002 92.849815369 2081.1289063
2081.629 0.776937902 2.0 0.2191230059 92.383720398 2081.6289063
2082.129 0.7159721851 2.0 0.2279050052 89.921455383 2082.1289063
