~Version information
VERS. 2.0:
WRAP. NO:
~Well
STRT.m 1499.8790000 :  
STOP.m 2416.3790000 :  
STEP.m 0.00000000 :  
NULL.  -999.250000 :  
COMP.    : COMPANY
WELL.  A10 : WELL
FLD.    : FIELD
LOC.    : LOCATION
SRVC.    : SERVICE COMPANY
DATE.  Monday, January 26 2009 14:04:02 : DATE
PROV.    : PROVINCE
UWI.    : UNIQUE WELL ID
API.    : API NUMBER
~Curve
DEPT.m   : DEPTH
NetGross.    : NetGross
Facies.    : Facies
Porosity.m3/m3   : Porosity
Gamma.gAPI   : Gamma
DEPTH.m   : trend
~Parameter

~Ascii
# ...
1821.129 0.0 0.0 0.2331690043 81.657119751 1821.1290283
1821.629 0.0 0.0 0.2481250018 75.354324341 1821.6290283
1822.129 0.0 0.0 0.240004003 73.211578369 1822.1290283
1822.629 0.0 0.0 0.2245139927 77.517723083 1822.6290283
1823.129 0.0 0.0 0.2310000062 82.416183472 1823.1290283
1823.629 0.0 0.0 0.2445019931 86.037025452 1823.6290283
1824.129 0.0 0.0 0.2511999905 83.361442566 1824.1290283
1824.629 0.0 0.0 0.2557249963 72.786979675 1824.6290283
1825.129 0.0 0.0 0.2654379904 67.579200745 1825.1290283
1825.629 0.0 0.0 0.2768070102 71.973640442 1825.6290283
1826.129 0.0 0.0 0.2661919892 79.246711731 1826.1290283
1826.629 0.0 0.0 0.2485579997 87.251655579 1826.6290283
1827.129 0.0 0.0 0.2489410043 88.791137695 1827.1290283
1827.629 0.1135924309 1.0 0.2550759912 81.567131042 1827.6290283
1828.129 0.2173693776 1.0 0.2515270114 75.766716003 1828.1290283
1828.629 0.2452754676 1.0 0.2448849976 74.64251709 1828.6290283
1829.129 0.5483317971 1.0 0.2416590005 75.360969543 1829.1290283
1829.629 0.6322623491 1.0 0.2395240068 77.017356873 1829.6290283
1830.129 0.7254291177 1.0 0.2434999943 75.069458008 1830.1290283
1830.629 0.6194479465 1.0 0.2494270056 68.066993713 1830.6290283
1831.129 0.4462887645 1.0 0.2428919971 62.379970551 1831.1290283
1831.629 0.7372726202 1.0 0.232378006 60.042274475 1831.6290283
1832.129 0.734062314 1.0 0.2432660013 60.120517731 1832.1290283
1832.629 0.5208539963 1.0 0.2609879971 62.316677094 1832.6290283
1833.129 0.3244508505 1.0 0.2625029981 66.707839966 1833.1290283
1833.629 0.4341660738 1.0 0.2588439882 73.318618774 1833.6290283
1834.129 0.4581880867 1.0 0.2497829944 79.287124634 1834.1290283
1834.629 0.3854756057 1.0 0.2389969975 83.69960022 1834.6290283
1835.129 0.3301402628 1.0 0.2289520055 86.768081665 1835.1290283
1835.629 0.3675522804 1.0 0.2191420048 88.560264587 1835.6290283
1836.129 0.6967281103 1.0 0.2321269959 87.810493469 1836.1290283
1836.629 0.5582331419 1.0 0.2523899972 84.114654541 1836.6290283
1837.129 0.2942916751 1.0 0.2506270111 80.103355408 1837.1290283
1837.629 0.6611483097 1.0 0.2418310046 76.616523743 1837.6290283
1838.129 0.6468065977 1.0 0.2389999926 73.626281738 1838.1290283
1838.629 0.4351668954 1.0 0.238075003 71.123725891 1838.6290283
1839.129 0.5160161853 1.0 0.2432519943 70.324142456 1839.1290283
1839.629 0.3836072087 1.0 0.2503769994 71.615562439 1839.6290283
1840.129 0.155951336 1.0 0.2516689897 73.335319519 1840.1290283
1840.629 0.1564542651 1.0 0.2511000037 74.952560425 1840.6290283
1841.129 0.5902501345 1.0 0.2360229939 76.46950531 1841.1290283
1841.629 0.4337958992 1.0 0.2163140029 77.886886597 1841.6290283
1842.129 0.0 1.0 0.2277529985 79.366912842 1842.1290283
1842.629 0.0 0.0 0.2491379976 80.961364746 1842.6290283
1843.129 0.0 0.0 0.2448650002 82.609848022 1843.1290283
1843.629 0.0 0.0 0.2324009985 84.29309845 1843.6290283
1844.129 0.0 0.0 0.2375440001 86.014030457 1844.1290283
1844.629 0.0 0.0 0.2483070046 87.773574829 1844.6290283
1845.129 0.0 0.0 0.2441949993 90.109741211 1845.1290283
1845.629 0.0 0.0 0.2353329957 93.194320679 1845.6290283
1846.129 0.0 0.0 0.2345679998 95.031822205 1846.1290283
1846.629 0.0 0.0 0.2363879979 94.985122681 1846.6290283
1847.129 0.0 0.0 0.2271379977 92.380111694 1847.1290283
1847.629 0.0 0.0 0.2143550068 87.001548767 1847.6290283
1848.129 0.0 0.0 0.2320089936 81.261711121 1848.1290283
1848.629 0.0 0.0 0.2593809962 75.93082428 1848.6290283
1849.129 0.0 0.0 0.2568610013 72.744949341 1849.1290283
1849.629 0.0 0.0 0.244795993 72.258407593 1849.6290283
1850.129 0.0 0.0 0.242565006 75.94317627 1850.1290283
1850.629 0.0 0.0 0.243475005 84.269264221 1850.6290283
1851.129 0.0 0.0 0.2490040064 88.504020691 1851.1290283
1851.629 0.0 0.0 0.2560090125 85.859199524 1851.6290283
1852.129 0.0 0.0 0.2471709996 81.330169678 1852.1290283
1852.629 0.0 0.0 0.2332749963 76.511894226 1852.6290283
1853.129 0.0 0.0 0.2475810051 73.314727783 1853.1290283
1853.629 0.0 0.0 0.2708910108 72.348625183 1853.6290283
1854.129 0.0 0.0 0.2604730129 73.121490479 1854.1290283
1854.629 0.0 0.0 0.2392860055 75.476203918 1854.6290283
1855.129 0.0 0.0 0.2438330054 78.028709412 1855.1290283
1855.629 0.0 0.0 0.2565949857 80.337104797 1855.6290283
1856.129 0.0 0.0 0.2662209868 81.210891724 1856.1290283
1856.629 0.0 0.0 0.2748450041 80.269966125 1856.6290283
1857.129 0.4060096145 2.0 0.2633349895 78.232131958 1857.1290283
1857.629 0.741298914 3.0 0.2453960031 75.326568604 1857.6290283
1858.129 0.7102906108 3.0 0.2353720069 72.542297363 1858.1290283
1858.629 0.800105989 2.0 0.2278749943 70.195121765 1858.6290283
1859.129 0.8062520623 2.0 0.2416159958 69.943687439 1859.1290283
1859.629 0.8124707937 2.0 0.2621369958 72.317573547 1859.6290283
1860.129 0.752169013 2.0 0.2626520097 73.427276611 1860.1290283
1860.629 0.6648980975 2.0 0.2567780018 72.030899048 1860.6290283
1861.129 0.7212843895 2.0 0.2528600097 69.412185669 1861.1290283
1861.629 0.8022691011 2.0 0.2495680004 65.981025696 1861.6290283
1862.129 0.8209226131 2.0 0.2563520074 63.402801514 1862.1290283
1862.629 0.7734706402 2.0 0.2663539946 62.209262848 1862.6290283
1863.129 0.7502009869 2.0 0.2715530097 60.691543579 1863.1290283
1863.629 0.7168185711 2.0 0.2752180099 58.304035187 1863.6290283
1864.129 0.7729190588 2.0 0.2737390101 55.970165253 1864.1290283
1864.629 0.783790946 2.0 0.2706179917 53.984775543 1864.6290283
1865.129 0.7509521246 2.0 0.2641730011 56.526916504 1865.1290283
1865.629 0.8040840626 2.0 0.2566669881 64.930908203 1865.6290283
1866.129 0.8602052927 2.0 0.2591690123 72.961280823 1866.1290283
1866.629 0.8302443624 2.0 0.2648659945 78.627113342 1866.6290283
1867.129 0.7899656296 2.0 0.2705860138 82.268745422 1867.1290283
1867.629 0.8427379131 2.0 0.2763119936 83.994827271 1867.6290283
1868.129 0.7843809724 2.0 0.2702859938 82.146179199 1868.1290283
1868.629 0.8156570196 2.0 0.2605069876 76.193031311 1868.6290283
1869.129 0.8005821705 2.0 0.2643840015 69.895225525 1869.1290283
1869.629 0.7023745775 2.0 0.2726210058 64.453224182 1869.6290283
1870.129 0.7694433928 2.0 0.2972129881 59.820152283 1870.1290283
1870.629 0.7585834265 2.0 0.3270280063 55.981052399 1870.6290283
1871.129 0.7294422388 2.0 0.3202370107 54.957687378 1871.1290283
1871.629 0.7965235114 2.0 0.3017579913 57.395576477 1871.6290283
1872.129 0.7394120097 2.0 0.2943260074 60.723365784 1872.1290283
1872.629 0.674646318 2.0 0.2904219925 64.120048523 1872.6290283
1873.129 0.7710871696 2.0 0.275094986 67.584907532 1873.1290283
1873.629 0.8340609074 2.0 0.2561219931 71.117744446 1873.6290283
1874.129 0.7549962401 2.0 0.2641899884 73.666763306 1874.1290283
1874.629 0.7660709023 2.0 0.2808920145 74.89617157 1874.6290283
1875.129 0.7517299652 2.0 0.2677510083 75.340637207 1875.1290283
1875.629 0.6729791164 2.0 0.2450809926 75.170883179 1875.6290283
1876.129 0.7414451838 2.0 0.2551290095 74.320022583 1876.1290283
1876.629 0.7192275524 2.0 0.2756229937 72.766708374 1876.6290283
1877.129 0.6321700215 2.0 0.2613709867 70.759468079 1877.1290283
1877.629 0.7064487934 2.0 0.2360250056 68.3776474 1877.6290283
1878.129 0.7288609743 3.0 0.2309979945 69.220199585 1878.1290283
1878.629 0.3259601593 3.0 0.2324589938 74.436233521 1878.6290283
1879.129 0.0 0.0 0.2263900042 85.567123413 1879.1290283
1879.629 0.0 0.0 0.2179159969 103.10501862 1879.6290283
1880.129 0.0 0.0 0.2149430066 115.45681763 1880.1290283
1880.629 0.0 0.0 0.213725999 118.92095947 1880.6290283
1881.129 0.0 0.0 0.2130219936 119.95752716 1881.1290283
1881.629 0.0 0.0 0.2124820054 120.62917328 1881.6290283
1882.129 0.0 0.0 0.2099130005 122.30773163 1882.1290283
1882.629 0.0 0.0 0.2066960037 125.43123627 1882.6290283
1883.129 0.0 0.0 0.205249995 127.94828033 1883.1290283
1883.629 0.0 0.0 0.2043700069 129.20385742 1883.6290283
1884.129 0.0 0.0 0.2046039999 129.5528717 1884.1290283
1884.629 0.0 0.0 0.2051929981 129.1086731 1884.6290283
1885.129 0.0 0.0 0.2074770033 127.55787659 1885.1290283
1885.629 0.0 0.0 0.2103009969 124.80043793 1885.6290283
1886.129 0.0 0.0 0.2121639997 122.270401 1886.1290283
1886.629 0.0 0.0 0.2137189955 120.42563629 1886.6290283
