~Version information
VERS. 2.0:
WRAP. NO:
~Well
STRT.m 1499.8790000 :  
STOP.m 2416.3790000 :  
STEP.m 0.00000000 :  
NULL.  -999.250000 :  
COMP.    : COMPANY
WELL.  A10 : WELL
FLD.    : FIELD
LOC.    : LOCATION
SRVC.    : SERVICE COMPANY
DATE.  Monday, January 26 2009 14:04:02 : DATE
PROV.    : PROVINCE
UWI.    : UNIQUE WELL ID
API.    : API NUMBER
~Curve
DEPT.m   : DEPTH
NetGross.    : NetGross
Facies.    : Facies
Porosity.m3/m3   : Porosity
Gamma.gAPI   : Gamma
DEPTH.m   : trend
~Parameter

~Ascii
# ...
1887.129 0.0 0.0 0.2146009952 119.10993958 1887.1290283
1887.629 0.0 0.0 0.215268001 118.27342224 1887.6290283
1888.129 0.0 0.0 0.2147810012 118.17642212 1888.1290283
1888.629 0.0 0.0 0.2139240056 118.90206909 1888.6290283
1889.129 0.0 0.0 0.2115270048 120.65836334 1889.1290283
1889.629 0.0 0.0 0.2086379975 123.51174164 1889.6290283
1890.129 0.0 0.0 0.2061920017 126.39163971 1890.1290283
1890.629 0.0 0.0 0.2038870007 128.95623779 1890.6290283
1891.129 0.0 0.0 0.2051759958 129.5043335 1891.1290283
1891.629 0.0 0.0 0.2076130062 127.49272919 1891.6290283
1892.129 0.0 0.0 0.2081580013 125.88301086 1892.1290283
1892.629 0.0 0.0 0.2080989927 125.62075043 1892.6290283
1893.129 0.0 0.0 0.2079100013 125.75507355 1893.1290283
1893.629 0.0 0.0 0.2076780051 125.98233795 1893.6290283
1894.129 0.0 0.0 0.2109999955 124.31430817 1894.1290283
1894.629 0.0 0.0 0.215455994 120.11612701 1894.6290283
1895.129 0.0 0.0 0.2186779976 115.97164154 1895.1290283
1895.629 0.0 0.0 0.2215059996 112.70583344 1895.6290283
1896.129 0.0 0.0 0.223089993 110.3241272 1896.1290283
1896.629 0.0 0.0 0.2242770046 108.82829285 1896.6290283
1897.129 0.0 0.0 0.221330002 109.77812958 1897.1290283
1897.629 0.0 0.0 0.2170639932 113.67169952 1897.6290283
1898.129 0.0 0.0 0.2130209953 118.15705109 1898.1290283
1898.629 0.0 0.0 0.2090490013 122.48323059 1898.6290283
1899.129 0.0 0.0 0.2055490017 126.51676941 1899.1290283
1899.629 0.0 0.0 0.2021989971 130.21504211 1899.6290283
1900.129 0.0 0.0 0.2030059993 131.58799744 1900.1290283
1900.629 0.0 0.0 0.2051399946 130.00019836 1900.6290283
1901.129 0.0 0.0 0.2057110071 128.53947449 1901.1290283
1901.629 0.0 0.0 0.205783993 128.19174194 1901.6290283
1902.129 0.0 0.0 0.2045899928 128.79751587 1902.1290283
1902.629 0.0 0.0 0.2029899955 130.30586243 1902.6290283
1903.129 0.0 0.0 0.2024430037 131.4642334 1903.1290283
1903.629 0.0 0.0 0.2022330016 131.87269592 1903.6290283
1904.129 0.0 0.0 0.2035659999 131.26681519 1904.1290283
1904.629 0.0 0.0 0.2053910047 129.56216431 1904.6290283
1905.129 0.0 0.0 0.2087650001 126.75543976 1905.1290283
1905.629 0.0 0.0 0.2126339972 122.84559631 1905.6290283
1906.129 0.0 0.0 0.2111569941 121.55435944 1906.1290283
1906.629 0.0 0.0 0.2079730034 124.0700531 1906.6290283
1907.129 0.0 0.0 0.2062609941 126.71298981 1907.1290283
1907.629 0.0 0.0 0.2050179988 128.30831909 1907.6290283
1908.129 0.0 0.0 0.2057320029 128.59390259 1908.1290283
1908.629 0.0 0.0 0.207069993 127.48605347 1908.6290283
1909.129 0.0 0.0 0.2057230026 127.49075317 1909.1290283
1909.629 0.0 0.0 0.2035190016 129.40811157 1909.6290283
1910.129 0.0 0.0 0.2018869966 131.47894287 1910.1290283
1910.629 0.0 0.0 0.2004390061 133.1415863 1910.6290283
1911.129 0.0 0.0 0.2001499981 134.07928467 1911.1290283
1911.629 0.0 0.0 0.2002319992 134.19085693 1911.6290283
1912.129 0.0 0.0 0.2039420009 132.14382935 1912.1290283
1912.629 0.0 0.0 0.208811 127.51274109 1912.6290283
1913.129 0.0 0.0 0.2121939957 123.05805969 1913.1290283
1913.629 0.0 0.0 0.2151039988 119.66117859 1913.6290283
1914.129 0.0 0.0 0.2144159973 118.46208191 1914.1290283
1914.629 0.0 0.0 0.212578997 119.82476044 1914.6290283
1915.129 0.0 0.0 0.2112800032 121.5177002 1915.1290283
1915.629 0.0 0.0 0.2101510018 122.82842255 1915.6290283
1916.129 0.0 0.0 0.2097129971 123.67420959 1916.1290283
1916.629 0.0 0.0 0.2094949931 124.02864838 1916.6290283
1917.129 0.0 0.0 0.2105869949 123.55686188 1917.1290283
1917.629 0.0 0.0 0.2120970041 122.15189362 1917.6290283
1918.129 0.0 0.0 0.2106869966 122.09793854 1918.1290283
1918.629 0.0 0.0 0.2083429992 124.12431335 1918.6290283
1919.129 0.0 0.0 0.2065439969 126.36062622 1919.1290283
1919.629 0.0 0.0 0.2049179971 128.2097168 1919.6290283
1920.129 0.0 0.0 0.2071589977 127.8780899 1920.1290283
1920.629 0.0 0.0 0.2106329948 124.7931366 1920.6290283
1921.129 0.0 0.0 0.2119030058 122.23210144 1921.1290283
1921.629 0.0 0.0 0.2124679983 121.24134827 1921.6290283
1922.129 0.0 0.0 0.2125820071 120.87470245 1922.1290283
1922.629 0.0 0.0 0.2125509977 120.83001709 1922.6290283
1923.129 0.0 0.0 0.2137950063 120.17537689 1923.1290283
1923.629 0.0 0.0 0.215444997 118.61322021 1923.6290283
1924.129 0.0 0.0 0.2201820016 115.16525269 1924.1290283
1924.629 0.0 0.0 0.2259040028 109.51911163 1924.6290283
1925.129 0.0 0.0 0.2378060073 102.22496033 1925.1290283
1925.629 0.0 0.0 0.2516799867 93.458488464 1925.6290283
1926.129 0.3254877627 3.0 0.2587000132 82.495834351 1926.1290283
1926.629 0.5482465625 3.0 0.2635309994 69.105888367 1926.6290283
1927.129 0.6579502821 3.0 0.2722260058 58.371166229 1927.1290283
1927.629 0.8654193878 2.0 0.2821559906 51.914463043 1927.6290283
1928.129 0.8153070211 2.0 0.268866986 48.32567215 1928.1290283
1928.629 0.86282444 2.0 0.2481649965 47.154571533 1928.6290283
1929.129 0.8603572249 2.0 0.264259994 46.580047607 1929.1290283
1929.629 0.7734872103 2.0 0.2921029925 46.020645142 1929.6290283
1930.129 0.7157411575 2.0 0.2975170016 45.558071136 1930.1290283
1930.629 0.7827742696 2.0 0.2957710028 45.218410492 1930.6290283
1931.129 0.8806940317 2.0 0.2929239869 45.039337158 1931.1290283
1931.629 0.8987599611 2.0 0.2897259891 45.03289032 1931.6290283
1932.129 0.8586072922 2.0 0.2872970104 45.988708496 1932.1290283
1932.629 0.8316926956 2.0 0.2851130068 48.158916473 1932.6290283
1933.129 0.8218088746 2.0 0.2839800119 49.661792755 1933.1290283
1933.629 0.7873467207 2.0 0.2831830084 49.896526337 1933.6290283
1934.129 0.7494428158 2.0 0.282882005 49.041023254 1934.1290283
1934.629 0.6801366806 2.0 0.2827390134 47.152076721 1934.6290283
1935.129 0.7696371078 2.0 0.2780869901 46.268497467 1935.1290283
1935.629 0.8496078253 2.0 0.2719970047 47.04126358 1935.6290283
1936.129 0.8272724748 2.0 0.2752709985 47.878120422 1936.1290283
1936.629 0.8221889734 2.0 0.2815339863 48.270679474 1936.6290283
1937.129 0.7882483602 2.0 0.2837499976 48.212295532 1937.1290283
1937.629 0.7732282877 2.0 0.2846739888 47.700832367 1937.6290283
1938.129 0.8113921881 2.0 0.2898209989 47.527599335 1938.1290283
1938.629 0.8066401482 2.0 0.2963159978 47.945251465 1938.6290283
1939.129 0.8017917871 2.0 0.2930029929 48.430057526 1939.1290283
1939.629 0.845680356 2.0 0.2865589857 48.814811707 1939.6290283
1940.129 0.8120390773 2.0 0.2816889882 49.065132141 1940.1290283
1940.629 0.8562682271 2.0 0.2773230076 49.17004776 1940.6290283
1941.129 0.8894109726 2.0 0.2687050104 48.927001953 1941.1290283
1941.629 0.807325542 2.0 0.2587299943 48.271320343 1941.6290283
1942.129 0.7577480078 2.0 0.259957999 47.852157593 1942.1290283
1942.629 0.7366595268 2.0 0.2647620142 47.876781464 1942.6290283
1943.129 0.7593148351 2.0 0.2677679956 48.553924561 1943.1290283
1943.629 0.8061311245 2.0 0.2702000141 49.950233459 1943.6290283
1944.129 0.9321665764 2.0 0.268678993 53.109134674 1944.1290283
1944.629 0.906240344 2.0 0.2658959925 58.363788605 1944.6290283
1945.129 0.7932887077 2.0 0.2694779932 63.820133209 1945.1290283
1945.629 0.7706984282 2.0 0.2750909925 68.873428345 1945.6290283
1946.129 0.7503430843 2.0 0.2758319974 72.84627533 1946.1290283
1946.629 0.6847350597 2.0 0.2750169933 75.522392273 1946.6290283
1947.129 0.6437222958 2.0 0.2709810138 77.940765381 1947.1290283
1947.629 0.7177451849 2.0 0.2659159899 80.43309021 1947.6290283
1948.129 0.8237541914 2.0 0.2614969909 82.823196411 1948.1290283
1948.629 0.7889144421 2.0 0.2572849989 85.054801941 1948.6290283
1949.129 0.7344465256 2.0 0.2410919964 86.945045471 1949.1290283
1949.629 0.7753652334 2.0 0.2210749984 88.435554504 1949.6290283
1950.129 0.7772901058 2.0 0.2210790068 87.350921631 1950.1290283
1950.629 0.7165898681 2.0 0.2274750024 82.996589661 1950.6290283
1951.129 0.3908020556 2.0 0.2581749856 78.092704773 1951.1290283
1951.629 0.3760354519 1.0 0.2966339886 73.507774353 1951.6290283
1952.129 0.6835141778 1.0 0.2829470038 71.753585815 1952.1290283
1952.629 0.6676424742 1.0 0.252609998 73.632133484 1952.6290283
1953.129 0.4287240505 1.0 0.2471390069 75.958374023 1953.1290283
1953.629 0.4801314473 1.0 0.2496069968 77.71534729 1953.6290283
1954.129 0.5911226273 1.0 0.2507500052 79.097465515 1954.1290283
